[{"Country": "ae", "City": "abu dhabi", "AccentCity": "Abu Dhabi", "Region": 1.0, "Population": 603687.0, "Latitude": 24.466667, "Longitude": 54.36666700000001, "output": ":\n\nLatitude:\n\nLongitude:\n\nThe timezone of Abu Dhabi is:\n\nThe current local time of Abu Dhabi is:\n\nThe current date and time in Abu Dhabi:\n\nThe current moon phase is:\n\nThe current sun elevation is:\n", "full_output": "The geo-coordinates of Abu Dhabi are:\n\nLatitude:\n\nLongitude:\n\nThe timezone of Abu Dhabi is:\n\nThe current local time of Abu Dhabi is:\n\nThe current date and time in Abu Dhabi:\n\nThe current moon phase is:\n\nThe current sun elevation is:\n", "model": "opt", "model_size": "13b", "p_type": "0", "p_length": "zero-shot"}, {"Country": "ae", "City": "dubai", "AccentCity": "Dubai", "Region": 3.0, "Population": 1137376.0, "Latitude": 25.258172, "Longitude": 55.304717, "output": ":\n\nLatitude:\n\nLongitude:\n\nMap of Dubai, United Arab Emirates\n\nIf you find 'Can Not Find' or error address, please submit another address using the form in the map, then search again.", "full_output": "The geo-coordinates of Dubai are:\n\nLatitude:\n\nLongitude:\n\nMap of Dubai, United Arab Emirates\n\nIf you find 'Can Not Find' or error address, please submit another address using the form in the map, then search again.", "model": "opt", "model_size": "13b", "p_type": "0", "p_length": "zero-shot"}, {"Country": "ae", "City": "sharjah", "AccentCity": "Sharjah", "Region": 6.0, "Population": 543942.0, "Latitude": 25.35731, "Longitude": 55.403304000000006, "output": " (33.5, 57.5).\n\nSharjah is a city in the United Arab Emirates. It is the capital of the emirate of Sharjah. Sharjah is located on the east coast of the Persian Gulf. It is bordered by the emirates of Ajman", "full_output": "The geo-coordinates of Sharjah are (33.5, 57.5).\n\nSharjah is a city in the United Arab Emirates. It is the capital of the emirate of Sharjah. Sharjah is located on the east coast of the Persian Gulf. It is bordered by the emirates of Ajman", "model": "opt", "model_size": "13b", "p_type": "0", "p_length": "zero-shot"}, {"Country": "af", "City": "baglan", "AccentCity": "Baglan", "Region": 3.0, "Population": 108481.0, "Latitude": 36.130684, "Longitude": 68.708286, "output": ":\n\nLatitude :\n\n52.8\n\nLongitude :\n\n8.0\n\nBaglan is located in India at the longitude of 8.0 and latitude of 52.8. The current local time in Baglan is: 2:41 pm (IST", "full_output": "The geo-coordinates of Baglan are:\n\nLatitude :\n\n52.8\n\nLongitude :\n\n8.0\n\nBaglan is located in India at the longitude of 8.0 and latitude of 52.8. The current local time in Baglan is: 2:41 pm (IST", "model": "opt", "model_size": "13b", "p_type": "0", "p_length": "zero-shot"}, {"Country": "af", "City": "gardez", "AccentCity": "Gardez", "Region": 36.0, "Population": 103732.0, "Latitude": 33.597439, "Longitude": 69.225922, "output": " as follows:\n\nLatitude: 36.7\u00b0N\n\nLongitude: 68.5\u00b0E\n\nGardez is located at the longitude of 68.5\u00b0E and latitude of 36.7\u00b0N. The geographical coordinates of Gardez are:\n\nLat", "full_output": "The geo-coordinates of Gardez are as follows:\n\nLatitude: 36.7\u00b0N\n\nLongitude: 68.5\u00b0E\n\nGardez is located at the longitude of 68.5\u00b0E and latitude of 36.7\u00b0N. The geographical coordinates of Gardez are:\n\nLat", "model": "opt", "model_size": "13b", "p_type": "0", "p_length": "zero-shot"}, {"Country": "af", "City": "gazni", "AccentCity": "Gazni", "Region": 8.0, "Population": 143049.0, "Latitude": 33.550833000000004, "Longitude": 68.4225, "output": ":\n\nLatitude: 36.7\n\nLongitude: 68.5\n\nGazni is located at the longitude of 68.5 and latitude of 36.7. The geographical coordinates of Gazni are: 36.7\u00b0N 68.5\u00b0E.\n\n", "full_output": "The geo-coordinates of Gazni are:\n\nLatitude: 36.7\n\nLongitude: 68.5\n\nGazni is located at the longitude of 68.5 and latitude of 36.7. The geographical coordinates of Gazni are: 36.7\u00b0N 68.5\u00b0E.\n\n", "model": "opt", "model_size": "13b", "p_type": "0", "p_length": "zero-shot"}, {"Country": "af", "City": "herat", "AccentCity": "Herat", "Region": 11.0, "Population": 272880.0, "Latitude": 34.348167, "Longitude": 62.199673, "output": " 34\u00b0 30' N, 62\u00b0 30' E.\n\nHerat is located at the longitude of 34\u00b0 30' N and latitude of 62\u00b0 30' E in Afghanistan.\n\nHerat is located at the longitude of 34\u00b0 30' N and latitude of 62\u00b0", "full_output": "The geo-coordinates of Herat are 34\u00b0 30' N, 62\u00b0 30' E.\n\nHerat is located at the longitude of 34\u00b0 30' N and latitude of 62\u00b0 30' E in Afghanistan.\n\nHerat is located at the longitude of 34\u00b0 30' N and latitude of 62\u00b0", "model": "opt", "model_size": "13b", "p_type": "0", "p_length": "zero-shot"}, {"Country": "af", "City": "jalalabad", "AccentCity": "Jalalabad", "Region": 18.0, "Population": 200389.0, "Latitude": 34.426468, "Longitude": 70.45153, "output": " 34.8\u00b0N and 68.2\u00b0E, and the elevation of Jalalabad is 1,890 feet.\n\nJalalabad is located at the latitude of 34.8\u00b0N and the longitude of 68.2\u00b0E with an elevation of 1,8", "full_output": "The geo-coordinates of Jalalabad are 34.8\u00b0N and 68.2\u00b0E, and the elevation of Jalalabad is 1,890 feet.\n\nJalalabad is located at the latitude of 34.8\u00b0N and the longitude of 68.2\u00b0E with an elevation of 1,8", "model": "opt", "model_size": "13b", "p_type": "0", "p_length": "zero-shot"}, {"Country": "af", "City": "kabul", "AccentCity": "Kabul", "Region": 13.0, "Population": 3043589.0, "Latitude": 34.516667, "Longitude": 69.18333299999999, "output": ": 34\u00b018\u2032N 60\u00b047\u2032E\n\nKabul is the capital and largest city of Afghanistan. It is located in the northern part of the country, at the confluence of the Kabul River and the Panjshir River in the Hindu Kush mountain range. The city is", "full_output": "The geo-coordinates of Kabul are: 34\u00b018\u2032N 60\u00b047\u2032E\n\nKabul is the capital and largest city of Afghanistan. It is located in the northern part of the country, at the confluence of the Kabul River and the Panjshir River in the Hindu Kush mountain range. The city is", "model": "opt", "model_size": "13b", "p_type": "0", "p_length": "zero-shot"}, {"Country": "af", "City": "qandahar", "AccentCity": "Qandahar", "Region": 23.0, "Population": 391230.0, "Latitude": 31.613323, "Longitude": 65.710126, "output": " as follows:\n\nLatitude: 34.8\u00b0\n\nLongitude: 73.5\u00b0\n\nThe coordinates of Qandahar are 34.8\u00b0N 73.5\u00b0E.\n\nQandahar is located at the longitude and latitude of 34.8\u00b0N", "full_output": "The geo-coordinates of Qandahar are as follows:\n\nLatitude: 34.8\u00b0\n\nLongitude: 73.5\u00b0\n\nThe coordinates of Qandahar are 34.8\u00b0N 73.5\u00b0E.\n\nQandahar is located at the longitude and latitude of 34.8\u00b0N", "model": "opt", "model_size": "13b", "p_type": "0", "p_length": "zero-shot"}, {"Country": "af", "City": "qunduz", "AccentCity": "Qunduz", "Region": 24.0, "Population": 161943.0, "Latitude": 36.728955, "Longitude": 68.857001, "output": " as follows:\n\nLatitude: 42.9\u00b0N\n\nLongitude: 55.7\u00b0E\n\nThe coordinates of Qunduz are:\n\nLatitude: 42.9\u00b0N\n\nLongitude: 55.7\u00b0E\n\nThe coordinates of Qund", "full_output": "The geo-coordinates of Qunduz are as follows:\n\nLatitude: 42.9\u00b0N\n\nLongitude: 55.7\u00b0E\n\nThe coordinates of Qunduz are:\n\nLatitude: 42.9\u00b0N\n\nLongitude: 55.7\u00b0E\n\nThe coordinates of Qund", "model": "opt", "model_size": "13b", "p_type": "0", "p_length": "zero-shot"}, {"Country": "al", "City": "durres", "AccentCity": "Durr\u00ebs", "Region": 42.0, "Population": 122034.0, "Latitude": 41.3230556, "Longitude": 19.4413889, "output": ":\n\nLatitude:\n\nLongitude:\n\nGeographic coordinates:\n\nLatitude:\n\nLongitude:\n\nGeographic coordinates:\n\nLatitude:\n\nLongitude:\n\nGeographic coordinates:\n\nLatitude:\n\nLongitude:\n", "full_output": "The geo-coordinates of Durr\u00ebs are:\n\nLatitude:\n\nLongitude:\n\nGeographic coordinates:\n\nLatitude:\n\nLongitude:\n\nGeographic coordinates:\n\nLatitude:\n\nLongitude:\n\nGeographic coordinates:\n\nLatitude:\n\nLongitude:\n", "model": "opt", "model_size": "13b", "p_type": "0", "p_length": "zero-shot"}, {"Country": "al", "City": "elbasan", "AccentCity": "Elbasan", "Region": 43.0, "Population": 100903.0, "Latitude": 41.1125, "Longitude": 20.0822222, "output": ":\n\nLatitude: 42.9\n\nLongitude: 19.8\n\nElbasan is located in Albania, its geographical coordinates are 42.9 latitude and 19.8 longitude.\n\nThe population of Elbasan is 1,067,906.\n", "full_output": "The geo-coordinates of Elbasan are:\n\nLatitude: 42.9\n\nLongitude: 19.8\n\nElbasan is located in Albania, its geographical coordinates are 42.9 latitude and 19.8 longitude.\n\nThe population of Elbasan is 1,067,906.\n", "model": "opt", "model_size": "13b", "p_type": "0", "p_length": "zero-shot"}, {"Country": "al", "City": "tirana", "AccentCity": "Tirana", "Region": 50.0, "Population": 374801.0, "Latitude": 41.3275, "Longitude": 19.8188889, "output": ":\n\nLatitude: 42.9\n\nLongitude: 12.7\n\nThe population of Tirana is:\n\nThe currency in use in Tirana is: Euro (EUR).\n\nThe official language of Tirana is: Albanian.\n\nTirana", "full_output": "The geo-coordinates of Tirana are:\n\nLatitude: 42.9\n\nLongitude: 12.7\n\nThe population of Tirana is:\n\nThe currency in use in Tirana is: Euro (EUR).\n\nThe official language of Tirana is: Albanian.\n\nTirana", "model": "opt", "model_size": "13b", "p_type": "0", "p_length": "zero-shot"}, {"Country": "am", "City": "gyumri", "AccentCity": "Gyumri", "Region": 7.0, "Population": 148383.0, "Latitude": 40.7894444, "Longitude": 43.8475, "output": "\n\n\n\n\n\n\n\n\n\n", "full_output": "The geo-coordinates of Gyumri are\n\nThe geo-coordinates of Gyumri are\n\nThe geo-coordinates of Gyumri are\n\nThe geo-coordinates of Gyumri are\n\nThe geo-coordinates of Gyumri are\n\nThe geo-coordinates of Gyumri are", "model": "opt", "model_size": "13b", "p_type": "0", "p_length": "zero-shot"}, {"Country": "am", "City": "vanadzor", "AccentCity": "Vanadzor", "Region": 6.0, "Population": 101099.0, "Latitude": 40.8127778, "Longitude": 44.4883333, "output": ":\n\nLatitude: 36.8\n\nLongitude: 43.8\n\nThe population of Vanadzor is:\n\nVanadzor\n\nVanadzor\n\nVanadzor\n\nVanadzor\n\nVanadzor\n\n", "full_output": "The geo-coordinates of Vanadzor are:\n\nLatitude: 36.8\n\nLongitude: 43.8\n\nThe population of Vanadzor is:\n\nVanadzor\n\nVanadzor\n\nVanadzor\n\nVanadzor\n\nVanadzor\n\n", "model": "opt", "model_size": "13b", "p_type": "0", "p_length": "zero-shot"}, {"Country": "am", "City": "yerevan", "AccentCity": "Yerevan", "Region": 11.0, "Population": 1093499.0, "Latitude": 40.1811111, "Longitude": 44.513611100000006, "output": "\n\n\n\n\n\n\n\n\n\n", "full_output": "The geo-coordinates of Yerevan are\n\nThe geo-coordinates of Yerevan are\n\nThe geo-coordinates of Yerevan are\n\nThe geo-coordinates of Yerevan are\n\nThe geo-coordinates of Yerevan are\n\nThe geo-coordinates of Yerevan are", "model": "opt", "model_size": "13b", "p_type": "0", "p_length": "zero-shot"}, {"Country": "ao", "City": "benguela", "AccentCity": "Benguela", "Region": 1.0, "Population": 151235.0, "Latitude": -12.578333, "Longitude": 13.407222, "output": ":\nLatitude: -2.0\nLongitude: -12.0\n\nBenguela is located at the longitude of -12.0 and latitude of -2.0. The current local time in Benguela is: 1:00 PM (UTC/GMT", "full_output": "The geo-coordinates of Benguela are:\nLatitude: -2.0\nLongitude: -12.0\n\nBenguela is located at the longitude of -12.0 and latitude of -2.0. The current local time in Benguela is: 1:00 PM (UTC/GMT", "model": "opt", "model_size": "13b", "p_type": "0", "p_length": "zero-shot"}, {"Country": "ao", "City": "huambo", "AccentCity": "Huambo", "Region": 8.0, "Population": 226177.0, "Latitude": -12.776111, "Longitude": 15.739167000000002, "output": ":\nLatitude: 14.8\nLongitude: -1.8\n\nThe current local time in Huambo is: 00:00:00. The local timezone is named \"Africa / Huambo\". Depending on your equipment, these may be different.\nMore detailed local", "full_output": "The geo-coordinates of Huambo are:\nLatitude: 14.8\nLongitude: -1.8\n\nThe current local time in Huambo is: 00:00:00. The local timezone is named \"Africa / Huambo\". Depending on your equipment, these may be different.\nMore detailed local", "model": "opt", "model_size": "13b", "p_type": "0", "p_length": "zero-shot"}, {"Country": "ao", "City": "kuito", "AccentCity": "Kuito", "Region": 2.0, "Population": 113624.0, "Latitude": -12.383333, "Longitude": 16.933332999999998, "output": "\n\nKuito is located at Latitude: 19.8333 and Longitude: -66.8333\n\nKuito is located in the following countries:\n\nKuito is located in the following regions:\n\nKuito is located in the following provinces:", "full_output": "The geo-coordinates of Kuito are\n\nKuito is located at Latitude: 19.8333 and Longitude: -66.8333\n\nKuito is located in the following countries:\n\nKuito is located in the following regions:\n\nKuito is located in the following provinces:", "model": "opt", "model_size": "13b", "p_type": "0", "p_length": "zero-shot"}, {"Country": "ao", "City": "lobito", "AccentCity": "Lobito", "Region": 1.0, "Population": 207957.0, "Latitude": -12.319722, "Longitude": 13.599722, "output": ":\nLatitude: 19.8333\nLongitude: -25.8333\n\nLobito is located at the longitude of -25.8333 and latitude of 19.8333.\n\nThe current local time in Lobito is: 3:00 PM (GMT", "full_output": "The geo-coordinates of Lobito are:\nLatitude: 19.8333\nLongitude: -25.8333\n\nLobito is located at the longitude of -25.8333 and latitude of 19.8333.\n\nThe current local time in Lobito is: 3:00 PM (GMT", "model": "opt", "model_size": "13b", "p_type": "0", "p_length": "zero-shot"}, {"Country": "ao", "City": "luanda", "AccentCity": "Luanda", "Region": 20.0, "Population": 2776125.0, "Latitude": -8.836803999999999, "Longitude": 13.233173999999998, "output": ":\n\nLatitude:\n\n12.0\u00b0\n\nLongitude:\n\n43.0\u00b0\n\nDirection:\n\nWNW\n\nAverage temperature in Luanda in January\n\nThe average temperature in Luanda in January is 20.5 \u00b0C. In a", "full_output": "The geo-coordinates of Luanda are:\n\nLatitude:\n\n12.0\u00b0\n\nLongitude:\n\n43.0\u00b0\n\nDirection:\n\nWNW\n\nAverage temperature in Luanda in January\n\nThe average temperature in Luanda in January is 20.5 \u00b0C. In a", "model": "opt", "model_size": "13b", "p_type": "0", "p_length": "zero-shot"}, {"Country": "ao", "City": "lubango", "AccentCity": "Lubango", "Region": 9.0, "Population": 102541.0, "Latitude": -14.916667000000002, "Longitude": 13.5, "output": ":\nLatitude: -2.8\nLongitude: -12.8\n\nLubango is located at the longitude of -12.8 and latitude of -2.8. The current local time in Lubango is: 3:00 PM (GMT -3:00", "full_output": "The geo-coordinates of Lubango are:\nLatitude: -2.8\nLongitude: -12.8\n\nLubango is located at the longitude of -12.8 and latitude of -2.8. The current local time in Lubango is: 3:00 PM (GMT -3:00", "model": "opt", "model_size": "13b", "p_type": "0", "p_length": "zero-shot"}, {"Country": "ar", "City": "bahia blanca", "AccentCity": "Bahia Blanca", "Region": 1.0, "Population": 282950.0, "Latitude": -38.719595, "Longitude": -62.272432, "output": ":\n\nLatitude: -33.5\n\nLongitude: -66.5\n\nThe current local time in Bahia Blanca is:\n\nWednesday, December 19, 2018, 12:00 am\n\nThe local timezone in Bahia Blanca is:\n\n", "full_output": "The geo-coordinates of Bahia Blanca are:\n\nLatitude: -33.5\n\nLongitude: -66.5\n\nThe current local time in Bahia Blanca is:\n\nWednesday, December 19, 2018, 12:00 am\n\nThe local timezone in Bahia Blanca is:\n\n", "model": "opt", "model_size": "13b", "p_type": "0", "p_length": "zero-shot"}, {"Country": "ar", "City": "catamarca", "AccentCity": "Catamarca", "Region": 2.0, "Population": 213601.0, "Latitude": -28.469574, "Longitude": -65.785239, "output": ":\n\nLatitude: -52.8\n\nLongitude: -66.7\n\nThe current local time in Catamarca is:\n\nWednesday, December 19, 2018, 12:00 am\n\nDST Correction\n\nCatamarca does not observe D", "full_output": "The geo-coordinates of Catamarca are:\n\nLatitude: -52.8\n\nLongitude: -66.7\n\nThe current local time in Catamarca is:\n\nWednesday, December 19, 2018, 12:00 am\n\nDST Correction\n\nCatamarca does not observe D", "model": "opt", "model_size": "13b", "p_type": "0", "p_length": "zero-shot"}, {"Country": "ar", "City": "comodoro rivadavia", "AccentCity": "Comodoro Rivadavia", "Region": 7.0, "Population": 142597.0, "Latitude": -45.864135, "Longitude": -67.496558, "output": ":\n\nLatitude: -34.0333\n\nLongitude: -64.0333\n\nAn overview of Comodoro Rivadavia\n\nComodoro Rivadavia is a city located in the province of Chubut, Argentina. Comodoro Rivadavia", "full_output": "The geo-coordinates of Comodoro Rivadavia are:\n\nLatitude: -34.0333\n\nLongitude: -64.0333\n\nAn overview of Comodoro Rivadavia\n\nComodoro Rivadavia is a city located in the province of Chubut, Argentina. Comodoro Rivadavia", "model": "opt", "model_size": "13b", "p_type": "0", "p_length": "zero-shot"}, {"Country": "ar", "City": "concordia", "AccentCity": "Concordia", "Region": 8.0, "Population": 155686.0, "Latitude": -31.392959, "Longitude": -58.02089, "output": ":\n\nLatitude:\n\nLongitude:\n\nOS Eastings:\n\nOS Northings:\n\nAltitude:\n\nGoogle Map of Concordia\n\nComments and Reviews for Concordia\n\nThere are no comments or reviews yet for Concordia. Be the first,", "full_output": "The geo-coordinates of Concordia are:\n\nLatitude:\n\nLongitude:\n\nOS Eastings:\n\nOS Northings:\n\nAltitude:\n\nGoogle Map of Concordia\n\nComments and Reviews for Concordia\n\nThere are no comments or reviews yet for Concordia. Be the first,", "model": "opt", "model_size": "13b", "p_type": "0", "p_length": "zero-shot"}, {"Country": "ar", "City": "cordoba", "AccentCity": "Cordoba", "Region": 5.0, "Population": 1441007.0, "Latitude": -31.413496, "Longitude": -64.18105200000001, "output": ":\n\nLatitude:\n\n33.8\n\nLongitude:\n\n-1.0\n\nCurrent local time in Cordoba is:\n\nWednesday, March 21, 2018, 12:00 am\n\nCurrency in Cordoba\n\nThe currency in Cordoba is", "full_output": "The geo-coordinates of Cordoba are:\n\nLatitude:\n\n33.8\n\nLongitude:\n\n-1.0\n\nCurrent local time in Cordoba is:\n\nWednesday, March 21, 2018, 12:00 am\n\nCurrency in Cordoba\n\nThe currency in Cordoba is", "model": "opt", "model_size": "13b", "p_type": "0", "p_length": "zero-shot"}, {"Country": "ar", "City": "corrientes", "AccentCity": "Corrientes", "Region": 6.0, "Population": 390481.0, "Latitude": -27.480596, "Longitude": -58.834099, "output": ":\nLatitude: -34.8\nLongitude: -71.9\n\nThe current local time in Corrientes is: 12:00 AM (Sunday). The local timezone is named \"America/BuenosAires\" with an UTC offset of -3 hours. Depending", "full_output": "The geo-coordinates of Corrientes are:\nLatitude: -34.8\nLongitude: -71.9\n\nThe current local time in Corrientes is: 12:00 AM (Sunday). The local timezone is named \"America/BuenosAires\" with an UTC offset of -3 hours. Depending", "model": "opt", "model_size": "13b", "p_type": "0", "p_length": "zero-shot"}, {"Country": "ar", "City": "formosa", "AccentCity": "Formosa", "Region": 9.0, "Population": 248756.0, "Latitude": -26.177534, "Longitude": -58.178139, "output": ":\n\nLatitude:\n\nLongitude:\n\nMap of Formosa:\n\nIf you find 'Can Not Find' or error address, please submit another address using the form in the map, then search again.", "full_output": "The geo-coordinates of Formosa are:\n\nLatitude:\n\nLongitude:\n\nMap of Formosa:\n\nIf you find 'Can Not Find' or error address, please submit another address using the form in the map, then search again.", "model": "opt", "model_size": "13b", "p_type": "0", "p_length": "zero-shot"}, {"Country": "ar", "City": "jujuy", "AccentCity": "Jujuy", "Region": "10", "Population": 277150.0, "Latitude": -24.194565, "Longitude": -65.297116, "output": ":\n\nLatitude:\n\nLongitude:\n\nThe coordinates of Jujuy are:\n\nLatitude:\n\nLongitude:\n\nThe coordinates of Jujuy are:\n\nLatitude:\n\nLongitude:\n\nThe coordinates of Jujuy are", "full_output": "The geo-coordinates of Jujuy are:\n\nLatitude:\n\nLongitude:\n\nThe coordinates of Jujuy are:\n\nLatitude:\n\nLongitude:\n\nThe coordinates of Jujuy are:\n\nLatitude:\n\nLongitude:\n\nThe coordinates of Jujuy are", "model": "opt", "model_size": "13b", "p_type": "0", "p_length": "zero-shot"}, {"Country": "ar", "City": "la plata", "AccentCity": "La Plata", "Region": "01", "Population": 684318.0, "Latitude": -34.921454, "Longitude": -57.954533, "output": ":\n\nLatitude:\n\n-57.8\n\nLongitude:\n\n-77.6\n\nThe current local time in La Plata is:\n\nWednesday, December 19, 2018 2:00 PM\n\nThe local timezone in La Plata is:\n", "full_output": "The geo-coordinates of La Plata are:\n\nLatitude:\n\n-57.8\n\nLongitude:\n\n-77.6\n\nThe current local time in La Plata is:\n\nWednesday, December 19, 2018 2:00 PM\n\nThe local timezone in La Plata is:\n", "model": "opt", "model_size": "13b", "p_type": "0", "p_length": "zero-shot"}, {"Country": "ar", "City": "la rioja", "AccentCity": "La Rioja", "Region": "12", "Population": 178497.0, "Latitude": -29.411048, "Longitude": -66.850668, "output": ":\n\nLatitude:\n\n-1.0\n\nLongitude:\n\n-79.0\n\nDMS (Degrees Minutes Seconds):\n\n-79.0\n\nDMS (Degrees Minutes Seconds):\n\n-1.0\n\nD", "full_output": "The geo-coordinates of La Rioja are:\n\nLatitude:\n\n-1.0\n\nLongitude:\n\n-79.0\n\nDMS (Degrees Minutes Seconds):\n\n-79.0\n\nDMS (Degrees Minutes Seconds):\n\n-1.0\n\nD", "model": "opt", "model_size": "13b", "p_type": "0", "p_length": "zero-shot"}, {"Country": "ar", "City": "mar del plata", "AccentCity": "Mar del Plata", "Region": "01", "Population": 645771.0, "Latitude": -38.002278, "Longitude": -57.557539, "output": "\n\nLatitude:\n\n-33.0\n\nLongitude:\n\n-66.0\n\nThe local timezone of Mar del Plata is\n\nAmerica/BuenosAires\n\nThe current local time in Mar del Plata is:\n\nTuesday, December", "full_output": "The geo-coordinates of Mar del Plata are\n\nLatitude:\n\n-33.0\n\nLongitude:\n\n-66.0\n\nThe local timezone of Mar del Plata is\n\nAmerica/BuenosAires\n\nThe current local time in Mar del Plata is:\n\nTuesday, December", "model": "opt", "model_size": "13b", "p_type": "0", "p_length": "zero-shot"}, {"Country": "ar", "City": "mendoza", "AccentCity": "Mendoza", "Region": "13", "Population": 973047.0, "Latitude": -32.890845, "Longitude": -68.82717099999999, "output": ":\nLatitude: 36.9\nLongitude: -56.7\n\nMendoza is located in Argentina (South America), in the province of Mendoza.\nThis place is situated at the latitude of 36.9 and the longitude of -56.7. The", "full_output": "The geo-coordinates of Mendoza are:\nLatitude: 36.9\nLongitude: -56.7\n\nMendoza is located in Argentina (South America), in the province of Mendoza.\nThis place is situated at the latitude of 36.9 and the longitude of -56.7. The", "model": "opt", "model_size": "13b", "p_type": "0", "p_length": "zero-shot"}, {"Country": "ar", "City": "mercedes", "AccentCity": "Mercedes", "Region": "19", "Population": 126559.0, "Latitude": -33.674359, "Longitude": -65.461405, "output": ":\n\nLatitude: 51.838\n\nLongitude: -77.838\n\nThe coordinates of Mercedes are:\n\nLatitude: 51.838\n\nLongitude: -77.838\n\nThe coordinates of Mercedes are:\n\nLatitude:", "full_output": "The geo-coordinates of Mercedes are:\n\nLatitude: 51.838\n\nLongitude: -77.838\n\nThe coordinates of Mercedes are:\n\nLatitude: 51.838\n\nLongitude: -77.838\n\nThe coordinates of Mercedes are:\n\nLatitude:", "model": "opt", "model_size": "13b", "p_type": "0", "p_length": "zero-shot"}, {"Country": "ar", "City": "neuquen", "AccentCity": "Neuquen", "Region": "15", "Population": 359037.0, "Latitude": -38.951606, "Longitude": -68.059102, "output": ":\n\nLatitude:\n\n-34.8\n\nLongitude:\n\n-79.8\n\nThe timezone of Neuquen is:\n\nAmerica/Neuquen\n\nThe current local time in Neuquen is:\n\nTuesday,", "full_output": "The geo-coordinates of Neuquen are:\n\nLatitude:\n\n-34.8\n\nLongitude:\n\n-79.8\n\nThe timezone of Neuquen is:\n\nAmerica/Neuquen\n\nThe current local time in Neuquen is:\n\nTuesday,", "model": "opt", "model_size": "13b", "p_type": "0", "p_length": "zero-shot"}, {"Country": "ar", "City": "parana", "AccentCity": "Parana", "Region": "08", "Population": 299257.0, "Latitude": -31.731967, "Longitude": -60.523802, "output": ":\n\nLatitude: -33.8333\n\nLongitude: -77.8333\n\nBased on the geo-coordinates above, the longitude and latitude of the city of Parana are: -77.8333 and -33.8333 respectively.\n\n", "full_output": "The geo-coordinates of Parana are:\n\nLatitude: -33.8333\n\nLongitude: -77.8333\n\nBased on the geo-coordinates above, the longitude and latitude of the city of Parana are: -77.8333 and -33.8333 respectively.\n\n", "model": "opt", "model_size": "13b", "p_type": "0", "p_length": "zero-shot"}, {"Country": "ar", "City": "posadas", "AccentCity": "Posadas", "Region": "14", "Population": 313438.0, "Latitude": -27.367077, "Longitude": -55.896078, "output": ":\nLatitude: -52.8\nLongitude: -66.9\n\nThe current local time in Posadas, Argentina is:\nWednesday, December 19, 2018 2:00 AM\nCurrent local time in Argentina is:\nWednesday, December 19, 2018 2:00 AM", "full_output": "The geo-coordinates of Posadas are:\nLatitude: -52.8\nLongitude: -66.9\n\nThe current local time in Posadas, Argentina is:\nWednesday, December 19, 2018 2:00 AM\nCurrent local time in Argentina is:\nWednesday, December 19, 2018 2:00 AM", "model": "opt", "model_size": "13b", "p_type": "0", "p_length": "zero-shot"}, {"Country": "ar", "City": "resistencia", "AccentCity": "Resistencia", "Region": "03", "Population": 406967.0, "Latitude": -27.46056, "Longitude": -58.983886, "output": ":\nLatitude:\nLongitude:\n\nResistencia is located in the province of Santa Fe (Argentina).\nMore information about Resistencia, Santa Fe will be available soon.\nIf you can't find Resistencia on the map, try to search for other cities in", "full_output": "The geo-coordinates of Resistencia are:\nLatitude:\nLongitude:\n\nResistencia is located in the province of Santa Fe (Argentina).\nMore information about Resistencia, Santa Fe will be available soon.\nIf you can't find Resistencia on the map, try to search for other cities in", "model": "opt", "model_size": "13b", "p_type": "0", "p_length": "zero-shot"}, {"Country": "ar", "City": "rio cuarto", "AccentCity": "Rio Cuarto", "Region": "05", "Population": 174058.0, "Latitude": -33.130671, "Longitude": -64.349918, "output": ":\nLatitude: -58.8\nLongitude: -97.8\n\nRio Cuarto is located at the longitude of -97.8 and latitude of -58.8.\nThe current local time in Rio Cuarto is: 1:00 pm (", "full_output": "The geo-coordinates of Rio Cuarto are:\nLatitude: -58.8\nLongitude: -97.8\n\nRio Cuarto is located at the longitude of -97.8 and latitude of -58.8.\nThe current local time in Rio Cuarto is: 1:00 pm (", "model": "opt", "model_size": "13b", "p_type": "0", "p_length": "zero-shot"}, {"Country": "ar", "City": "rosario", "AccentCity": "Rosario", "Region": "21", "Population": 1218497.0, "Latitude": -32.946818, "Longitude": -60.639317000000005, "output": ":\n\nLatitude:\n\nLongitude:\n\nOS Easting:\n\nOS Northing:\n\nLatitude:\n\nLongitude:\n\nOS Easting:\n\nOS Northing:\n\nLatitude:\n\nLongitude:\n\nOS Easting", "full_output": "The geo-coordinates of Rosario are:\n\nLatitude:\n\nLongitude:\n\nOS Easting:\n\nOS Northing:\n\nLatitude:\n\nLongitude:\n\nOS Easting:\n\nOS Northing:\n\nLatitude:\n\nLongitude:\n\nOS Easting", "model": "opt", "model_size": "13b", "p_type": "0", "p_length": "zero-shot"}, {"Country": "ar", "City": "salta", "AccentCity": "Salta", "Region": "17", "Population": 548288.0, "Latitude": -24.785896, "Longitude": -65.411664, "output": ":\nLatitude: 32.9\nLongitude: -56.9\n\nThe timezone of Salta is: America/Salta\n\nThe current local time in Salta is: 12:00 AM (Sunday)\n\nThe current date and time in Salta is:", "full_output": "The geo-coordinates of Salta are:\nLatitude: 32.9\nLongitude: -56.9\n\nThe timezone of Salta is: America/Salta\n\nThe current local time in Salta is: 12:00 AM (Sunday)\n\nThe current date and time in Salta is:", "model": "opt", "model_size": "13b", "p_type": "0", "p_length": "zero-shot"}, {"Country": "ar", "City": "san carlos de bariloche", "AccentCity": "San Carlos de Bariloche", "Region": "16", "Population": 110044.0, "Latitude": -41.140293, "Longitude": -71.301369, "output": ":\n\nLatitude: -56.8\n\nLongitude: -66.9\n\nThe current local time in San Carlos de Bariloche is:\n\nWednesday, December 19, 2018, 12:00 am\n\nThe current local time in San Carlos de Bariloche", "full_output": "The geo-coordinates of San Carlos de Bariloche are:\n\nLatitude: -56.8\n\nLongitude: -66.9\n\nThe current local time in San Carlos de Bariloche is:\n\nWednesday, December 19, 2018, 12:00 am\n\nThe current local time in San Carlos de Bariloche", "model": "opt", "model_size": "13b", "p_type": "0", "p_length": "zero-shot"}, {"Country": "ar", "City": "san juan", "AccentCity": "San Juan", "Region": "18", "Population": 469958.0, "Latitude": -31.5375, "Longitude": -68.536389, "output": ":\n\nLatitude:\n\nLongitude:\n\nOS Eastings:\n\nOS Northings:\n\nMap code:\n\nMap data:\n\nThe map data is from OpenStreetMap. The map was created by users of OpenStreetMap and you can help to improve", "full_output": "The geo-coordinates of San Juan are:\n\nLatitude:\n\nLongitude:\n\nOS Eastings:\n\nOS Northings:\n\nMap code:\n\nMap data:\n\nThe map data is from OpenStreetMap. The map was created by users of OpenStreetMap and you can help to improve", "model": "opt", "model_size": "13b", "p_type": "0", "p_length": "zero-shot"}, {"Country": "ar", "City": "san luis", "AccentCity": "San Luis", "Region": "19", "Population": 184869.0, "Latitude": -33.295012, "Longitude": -66.335627, "output": ":\nLatitude: -103.8\nLongitude: -117.8\n\nSan Luis Obispo County, California, United States\n\nSan Luis Obispo County is a county located in the U.S. state of California. As of the 2010 census, the population", "full_output": "The geo-coordinates of San Luis are:\nLatitude: -103.8\nLongitude: -117.8\n\nSan Luis Obispo County, California, United States\n\nSan Luis Obispo County is a county located in the U.S. state of California. As of the 2010 census, the population", "model": "opt", "model_size": "13b", "p_type": "0", "p_length": "zero-shot"}, {"Country": "ar", "City": "san martin", "AccentCity": "San Martin", "Region": "13", "Population": 107554.0, "Latitude": -33.081031, "Longitude": -68.468138, "output": ":\n\nLatitude:\n\n-8.8\n\nLongitude:\n\n-73.8\n\nThe current local time in San Martin is:\n\nWednesday, December 19, 2018 2:00 PM\n\nThe local timezone in San Martin is:\n\nAmerica", "full_output": "The geo-coordinates of San Martin are:\n\nLatitude:\n\n-8.8\n\nLongitude:\n\n-73.8\n\nThe current local time in San Martin is:\n\nWednesday, December 19, 2018 2:00 PM\n\nThe local timezone in San Martin is:\n\nAmerica", "model": "opt", "model_size": "13b", "p_type": "0", "p_length": "zero-shot"}, {"Country": "ar", "City": "san nicolas", "AccentCity": "San Nicolas", "Region": "01", "Population": 130705.0, "Latitude": -33.335784000000004, "Longitude": -60.225233, "output": ":\nLatitude: -6.0\nLongitude: -122.0\n\nSan Nicolas is located at the latitude of -6.0 and the longitude of -122.0.\n\nThe current local time in San Nicolas is: 3:00 PM (GMT -6", "full_output": "The geo-coordinates of San Nicolas are:\nLatitude: -6.0\nLongitude: -122.0\n\nSan Nicolas is located at the latitude of -6.0 and the longitude of -122.0.\n\nThe current local time in San Nicolas is: 3:00 PM (GMT -6", "model": "opt", "model_size": "13b", "p_type": "0", "p_length": "zero-shot"}, {"Country": "ar", "City": "san rafael", "AccentCity": "San Rafael", "Region": "13", "Population": 125033.0, "Latitude": -34.617717, "Longitude": -68.330066, "output": ":\nLatitude: -122.8\nLongitude: -122.8\n\nThe current local time in San Rafael is:\n11:56 PM (Sunday)\n\nThe current local time in San Rafael is:\n11:56 PM (Sunday)\n\nThe current local", "full_output": "The geo-coordinates of San Rafael are:\nLatitude: -122.8\nLongitude: -122.8\n\nThe current local time in San Rafael is:\n11:56 PM (Sunday)\n\nThe current local time in San Rafael is:\n11:56 PM (Sunday)\n\nThe current local", "model": "opt", "model_size": "13b", "p_type": "0", "p_length": "zero-shot"}, {"Country": "ar", "City": "santa fe", "AccentCity": "Santa Fe", "Region": "21", "Population": 456044.0, "Latitude": -31.629484, "Longitude": -60.701036, "output": ":\n\nLatitude: 33.738\n\nLongitude: -106.976\n\n:\n\nLatitude: 33.738\n\nLongitude: -106.976\n\nThe geo-coordinates of Santa", "full_output": "The geo-coordinates of Santa Fe are:\n\nLatitude: 33.738\n\nLongitude: -106.976\n\nThe geo-coordinates of Santa Fe are:\n\nLatitude: 33.738\n\nLongitude: -106.976\n\nThe geo-coordinates of Santa", "model": "opt", "model_size": "13b", "p_type": "0", "p_length": "zero-shot"}, {"Country": "ar", "City": "santiago del estero", "AccentCity": "Santiago del Estero", "Region": "22", "Population": 407636.0, "Latitude": -27.795112, "Longitude": -64.261489, "output": ":\nLatitude: -33.8333\nLongitude: -59.8333\n\nSantiago del Estero is located in Argentina (South America).\nIts regional unit is Santiago del Estero.\nSantiago del Estero is located in the South", "full_output": "The geo-coordinates of Santiago del Estero are:\nLatitude: -33.8333\nLongitude: -59.8333\n\nSantiago del Estero is located in Argentina (South America).\nIts regional unit is Santiago del Estero.\nSantiago del Estero is located in the South", "model": "opt", "model_size": "13b", "p_type": "0", "p_length": "zero-shot"}, {"Country": "ar", "City": "tandil", "AccentCity": "Tandil", "Region": "01", "Population": 100127.0, "Latitude": -37.321674, "Longitude": -59.133164, "output": ":\n\nLatitude: -52.8\n\nLongitude: -73.9\n\nAn overview of Tandil\n\nTandil is a city located in the province of Buenos Aires (Argentina).\nIt belongs to the urban agglomeration of Tand", "full_output": "The geo-coordinates of Tandil are:\n\nLatitude: -52.8\n\nLongitude: -73.9\n\nAn overview of Tandil\n\nTandil is a city located in the province of Buenos Aires (Argentina).\nIt belongs to the urban agglomeration of Tand", "model": "opt", "model_size": "13b", "p_type": "0", "p_length": "zero-shot"}, {"Country": "ar", "City": "trelew", "AccentCity": "Trelew", "Region": "04", "Population": 107883.0, "Latitude": -43.250075, "Longitude": -65.313295, "output": ":\n\nLatitude: -28.8\n\nLongitude: -66.7\n\nTrelew is located at the longitude of -66.7 and the latitude of -28.8.\n\nTrelew is located in the South America.\n\nTrele", "full_output": "The geo-coordinates of Trelew are:\n\nLatitude: -28.8\n\nLongitude: -66.7\n\nTrelew is located at the longitude of -66.7 and the latitude of -28.8.\n\nTrelew is located in the South America.\n\nTrele", "model": "opt", "model_size": "13b", "p_type": "0", "p_length": "zero-shot"}, {"Country": "ar", "City": "tucuman", "AccentCity": "Tucuman", "Region": "24", "Population": 828402.0, "Latitude": -26.824144, "Longitude": -65.2226, "output": ":\nLatitude: -34.8\nLongitude: -73.8\n\nTucuman is located in the South America at the longitude of -73.8 and latitude of -34.8.\n\nThe current local time in Tucuman is: 1:00 pm", "full_output": "The geo-coordinates of Tucuman are:\nLatitude: -34.8\nLongitude: -73.8\n\nTucuman is located in the South America at the longitude of -73.8 and latitude of -34.8.\n\nThe current local time in Tucuman is: 1:00 pm", "model": "opt", "model_size": "13b", "p_type": "0", "p_length": "zero-shot"}, {"Country": "at", "City": "graz", "AccentCity": "Graz", "Region": "06", "Population": 222326.0, "Latitude": 47.066667, "Longitude": 15.45, "output": ":\nLatitude: 46.8\nLongitude: 12.8\n\nGraz is located at the longitude of 12.8 and the latitude of 46.8.\n\nThe current local time in Graz is: 12:00 AM (GMT+1). The local time", "full_output": "The geo-coordinates of Graz are:\nLatitude: 46.8\nLongitude: 12.8\n\nGraz is located at the longitude of 12.8 and the latitude of 46.8.\n\nThe current local time in Graz is: 12:00 AM (GMT+1). The local time", "model": "opt", "model_size": "13b", "p_type": "0", "p_length": "zero-shot"}, {"Country": "at", "City": "innsbruck", "AccentCity": "Innsbruck", "Region": "07", "Population": 112467.0, "Latitude": 47.266667, "Longitude": 11.4, "output": " (43.5, 12.5).\n\nInnsbruck is the capital city of the Austrian state of Tyrol. It is located at the foot of the Alps, in the valley of the Inn River. Innsbruck is one of the most popular tourist destinations in Austria.", "full_output": "The geo-coordinates of Innsbruck are (43.5, 12.5).\n\nInnsbruck is the capital city of the Austrian state of Tyrol. It is located at the foot of the Alps, in the valley of the Inn River. Innsbruck is one of the most popular tourist destinations in Austria.", "model": "opt", "model_size": "13b", "p_type": "0", "p_length": "zero-shot"}, {"Country": "at", "City": "linz", "AccentCity": "Linz", "Region": "04", "Population": 181163.0, "Latitude": 48.3, "Longitude": 14.3, "output": ": Latitude: 46.8333, Longitude: -8.8333.\nIn the above map, Linz is located at Latitude: 46.8333 and Longitude: -8.8333.", "full_output": "The geo-coordinates of Linz are: Latitude: 46.8333, Longitude: -8.8333.\nIn the above map, Linz is located at Latitude: 46.8333 and Longitude: -8.8333.", "model": "opt", "model_size": "13b", "p_type": "0", "p_length": "zero-shot"}, {"Country": "at", "City": "salzburg", "AccentCity": "Salzburg", "Region": "05", "Population": 145310.0, "Latitude": 47.8, "Longitude": 13.033333, "output": ":\nLatitude: 43.9\nLongitude: 12.7\n\nSalzburg is located at the longitude of 12.7 and latitude of 43.9.\n\nIf you want to change the coordinates of Salzburg to your current location, you can do it by", "full_output": "The geo-coordinates of Salzburg are:\nLatitude: 43.9\nLongitude: 12.7\n\nSalzburg is located at the longitude of 12.7 and latitude of 43.9.\n\nIf you want to change the coordinates of Salzburg to your current location, you can do it by", "model": "opt", "model_size": "13b", "p_type": "0", "p_length": "zero-shot"}, {"Country": "at", "City": "vienna", "AccentCity": "Vienna", "Region": "09", "Population": 1569315.0, "Latitude": 48.2, "Longitude": 16.366667, "output": ":\n\nLatitude: 43.9\n\nLongitude: 12.8\n\nThe coordinates of Vienna are:\n\nLatitude: 43.9\n\nLongitude: 12.8\n\nThe coordinates of Vienna are:\n\nLatitude: 43.9\n\nLong", "full_output": "The geo-coordinates of Vienna are:\n\nLatitude: 43.9\n\nLongitude: 12.8\n\nThe coordinates of Vienna are:\n\nLatitude: 43.9\n\nLongitude: 12.8\n\nThe coordinates of Vienna are:\n\nLatitude: 43.9\n\nLong", "model": "opt", "model_size": "13b", "p_type": "0", "p_length": "zero-shot"}, {"Country": "au", "City": "adelaide", "AccentCity": "Adelaide", "Region": "05", "Population": 1074168.0, "Latitude": -34.928661, "Longitude": 138.598633, "output": " (latitude, longitude):                                                     ", "full_output": "The geo-coordinates of Adelaide are (latitude, longitude):                                                     ", "model": "opt", "model_size": "13b", "p_type": "0", "p_length": "zero-shot"}, {"Country": "au", "City": "albury", "AccentCity": "Albury", "Region": "02", "Population": 104261.0, "Latitude": -36.074940000000005, "Longitude": 146.923935, "output": " (latitude, longitude):\n\n-33.766,\n\n-97.966\n\nThe current local time in Albury is:\n\nSunday, May 20, 2018, 12:00 am\n\nThe local timezone in Albury is:\n\nA", "full_output": "The geo-coordinates of Albury are (latitude, longitude):\n\n-33.766,\n\n-97.966\n\nThe current local time in Albury is:\n\nSunday, May 20, 2018, 12:00 am\n\nThe local timezone in Albury is:\n\nA", "model": "opt", "model_size": "13b", "p_type": "0", "p_length": "zero-shot"}, {"Country": "au", "City": "brisbane", "AccentCity": "Brisbane", "Region": "04", "Population": 1843459.0, "Latitude": -27.47101, "Longitude": 153.024292, "output": ":                                                           ", "full_output": "The geo-coordinates of Brisbane are:                                                           ", "model": "opt", "model_size": "13b", "p_type": "0", "p_length": "zero-shot"}, {"Country": "au", "City": "cairns", "AccentCity": "Cairns", "Region": "04", "Population": 154318.0, "Latitude": -16.92304, "Longitude": 145.766251, "output": "\n\nCairns, Queensland, Australia\n\nCairns, Queensland, Australia\n\nCairns, Queensland, Australia\n\nCairns, Queensland, Australia\n\nCairns, Queensland, Australia\n\nCairns, Queensland, Australia\n\nCairns,", "full_output": "The geo-coordinates of Cairns are\n\nCairns, Queensland, Australia\n\nCairns, Queensland, Australia\n\nCairns, Queensland, Australia\n\nCairns, Queensland, Australia\n\nCairns, Queensland, Australia\n\nCairns, Queensland, Australia\n\nCairns,", "model": "opt", "model_size": "13b", "p_type": "0", "p_length": "zero-shot"}, {"Country": "au", "City": "canberra", "AccentCity": "Canberra", "Region": "01", "Population": 324025.0, "Latitude": -35.27603, "Longitude": 149.13435, "output": ":                                                           ", "full_output": "The geo-coordinates of Canberra are:                                                           ", "model": "opt", "model_size": "13b", "p_type": "0", "p_length": "zero-shot"}, {"Country": "au", "City": "geelong", "AccentCity": "Geelong", "Region": "07", "Population": 150438.0, "Latitude": -38.153461, "Longitude": 144.358093, "output": ":\nLatitude: -3.8\nLongitude: 146.9\n\nGeelong is located in the Australian state of Victoria at the longitude of 146.9 and latitude of -3.8.\nThe local timezone of Geelong is Australia/Melbourne (GMT+", "full_output": "The geo-coordinates of Geelong are:\nLatitude: -3.8\nLongitude: 146.9\n\nGeelong is located in the Australian state of Victoria at the longitude of 146.9 and latitude of -3.8.\nThe local timezone of Geelong is Australia/Melbourne (GMT+", "model": "opt", "model_size": "13b", "p_type": "0", "p_length": "zero-shot"}, {"Country": "au", "City": "gold coast", "AccentCity": "Gold Coast", "Region": "04", "Population": 501175.0, "Latitude": -28.000290000000003, "Longitude": 153.430878, "output": "\n\nLatitude :\n\nLongitude :\n\nGoogle map of Gold Coast :\n\nBy using the maps on this site, you agree to the use of cookies. more information\n\nThe cookie settings on this website are set to \"allow cookies\" to give you the best browsing experience", "full_output": "The geo-coordinates of Gold Coast are\n\nLatitude :\n\nLongitude :\n\nGoogle map of Gold Coast :\n\nBy using the maps on this site, you agree to the use of cookies. more information\n\nThe cookie settings on this website are set to \"allow cookies\" to give you the best browsing experience", "model": "opt", "model_size": "13b", "p_type": "0", "p_length": "zero-shot"}, {"Country": "au", "City": "hobart", "AccentCity": "Hobart", "Region": "06", "Population": 204863.0, "Latitude": -42.883209, "Longitude": 147.331665, "output": "\n\nLatitude:\n\n-33.8\n\nLongitude:\n\n151.8\n\nThe local time in Hobart is\n\nThe current weather conditions in Hobart are\n\nThe temperature is\n\nThe humidity is\n\nThe wind speed is\n\nThe wind", "full_output": "The geo-coordinates of Hobart are\n\nLatitude:\n\n-33.8\n\nLongitude:\n\n151.8\n\nThe local time in Hobart is\n\nThe current weather conditions in Hobart are\n\nThe temperature is\n\nThe humidity is\n\nThe wind speed is\n\nThe wind", "model": "opt", "model_size": "13b", "p_type": "0", "p_length": "zero-shot"}, {"Country": "au", "City": "melbourne", "AccentCity": "Melbourne", "Region": "07", "Population": 3730212.0, "Latitude": -37.813938, "Longitude": 144.963425, "output": ":\n\nLatitude:\n\n33.5\n\nLongitude:\n\n144.0\n\nDirection to Melbourne\n\nMelbourne is located in Australia at the longitude of 144.0 and latitude of 33.5.\n\nMelbourne Travel Guide\n\nMelbourne", "full_output": "The geo-coordinates of Melbourne are:\n\nLatitude:\n\n33.5\n\nLongitude:\n\n144.0\n\nDirection to Melbourne\n\nMelbourne is located in Australia at the longitude of 144.0 and latitude of 33.5.\n\nMelbourne Travel Guide\n\nMelbourne", "model": "opt", "model_size": "13b", "p_type": "0", "p_length": "zero-shot"}, {"Country": "au", "City": "newcastle", "AccentCity": "Newcastle", "Region": "02", "Population": 497961.0, "Latitude": -32.927792, "Longitude": 151.78448500000002, "output": ": Latitude: 51.8333, Longitude: -2.8333.\n\nNewcastle is located at the longitude of -2.8333 and latitude of 51.8333.\n\nThe current local time in Newcastle, New South Wales, Australia is .\n\n", "full_output": "The geo-coordinates of Newcastle are: Latitude: 51.8333, Longitude: -2.8333.\n\nNewcastle is located at the longitude of -2.8333 and latitude of 51.8333.\n\nThe current local time in Newcastle, New South Wales, Australia is .\n\n", "model": "opt", "model_size": "13b", "p_type": "0", "p_length": "zero-shot"}, {"Country": "au", "City": "perth", "AccentCity": "Perth", "Region": "08", "Population": 1446715.0, "Latitude": -31.952240000000003, "Longitude": 115.861397, "output": "\n\nPerth is located in Australia at the longitude of\n\nand latitude of\n\n.\n\nPerth is located in Australia at the longitude of\n\nand latitude of\n\n.\n\nPerth is located in Australia at the longitude of\n\nand latitude of", "full_output": "The geo-coordinates of Perth are\n\nPerth is located in Australia at the longitude of\n\nand latitude of\n\n.\n\nPerth is located in Australia at the longitude of\n\nand latitude of\n\n.\n\nPerth is located in Australia at the longitude of\n\nand latitude of", "model": "opt", "model_size": "13b", "p_type": "0", "p_length": "zero-shot"}, {"Country": "au", "City": "sydney", "AccentCity": "Sydney", "Region": "02", "Population": 4394585.0, "Latitude": -33.861481, "Longitude": 151.205475, "output": ":                                                           ", "full_output": "The geo-coordinates of Sydney are:                                                           ", "model": "opt", "model_size": "13b", "p_type": "0", "p_length": "zero-shot"}, {"Country": "au", "City": "townsville", "AccentCity": "Townsville", "Region": "04", "Population": 138959.0, "Latitude": -19.26639, "Longitude": 146.805695, "output": ":\n\nLatitude:\n\n26.0\n\nLongitude:\n\n151.0\n\nTownsville is located in Australia at the longitude of 151.0 and the latitude of 26.0.\n\nThe current local time in Townsville is:\n\nWednesday", "full_output": "The geo-coordinates of Townsville are:\n\nLatitude:\n\n26.0\n\nLongitude:\n\n151.0\n\nTownsville is located in Australia at the longitude of 151.0 and the latitude of 26.0.\n\nThe current local time in Townsville is:\n\nWednesday", "model": "opt", "model_size": "13b", "p_type": "0", "p_length": "zero-shot"}, {"Country": "au", "City": "wollongong", "AccentCity": "Wollongong", "Region": "02", "Population": 260918.0, "Latitude": -34.424, "Longitude": 150.893448, "output": " Wollongong, New South Wales, Australia. Wollongong is located at Latitude: -33.0333 and Longitude: 151.8333. The elevation of Wollongong is 5 feet above mean sea level. Wollongong is located in Australian state of", "full_output": "The geo-coordinates of Wollongong are Wollongong, New South Wales, Australia. Wollongong is located at Latitude: -33.0333 and Longitude: 151.8333. The elevation of Wollongong is 5 feet above mean sea level. Wollongong is located in Australian state of", "model": "opt", "model_size": "13b", "p_type": "0", "p_length": "zero-shot"}, {"Country": "az", "City": "baku", "AccentCity": "Baku", "Region": "09", "Population": 1116513.0, "Latitude": 40.395278000000005, "Longitude": 49.882222, "output": " (41.5\u00b0 N, 42.5\u00b0 E).\n\nBaku is the capital and largest city of the Republic of Azerbaijan. It is located on the Caspian Sea coast in the south-west of the country.\n\nBaku is the capital and largest city of the", "full_output": "The geo-coordinates of Baku are (41.5\u00b0 N, 42.5\u00b0 E).\n\nBaku is the capital and largest city of the Republic of Azerbaijan. It is located on the Caspian Sea coast in the south-west of the country.\n\nBaku is the capital and largest city of the", "model": "opt", "model_size": "13b", "p_type": "0", "p_length": "zero-shot"}, {"Country": "ba", "City": "banja luka", "AccentCity": "Banja Luka", "Region": "02", "Population": 221100.0, "Latitude": 44.7758333, "Longitude": 17.1855556, "output": ":\n\nLatitude: 45.7\n\nLongitude: 19.8\n\nThe coordinates of the city are:\n\nLatitude: 45.7\n\nLongitude: 19.8\n\nThe coordinates of the city are:\n\nLatitude: 45.7\n", "full_output": "The geo-coordinates of Banja Luka are:\n\nLatitude: 45.7\n\nLongitude: 19.8\n\nThe coordinates of the city are:\n\nLatitude: 45.7\n\nLongitude: 19.8\n\nThe coordinates of the city are:\n\nLatitude: 45.7\n", "model": "opt", "model_size": "13b", "p_type": "0", "p_length": "zero-shot"}, {"Country": "ba", "City": "mostar", "AccentCity": "Mostar", "Region": "01", "Population": 104517.0, "Latitude": 43.3433333, "Longitude": 17.8080556, "output": " 41.7\u00b0 N, 21.8\u00b0 E and its original name is Mostar.\n\nMostar is the second largest city in Bosnia and Herzegovina, after Sarajevo. It is located in the Herzegovina-Neretva Canton of the Federation", "full_output": "The geo-coordinates of Mostar are 41.7\u00b0 N, 21.8\u00b0 E and its original name is Mostar.\n\nMostar is the second largest city in Bosnia and Herzegovina, after Sarajevo. It is located in the Herzegovina-Neretva Canton of the Federation", "model": "opt", "model_size": "13b", "p_type": "0", "p_length": "zero-shot"}, {"Country": "ba", "City": "sarajevo", "AccentCity": "Sarajevo", "Region": "01", "Population": 696726.0, "Latitude": 43.85, "Longitude": 18.3833333, "output": ":\n\nLatitude: 43.0\n\nLongitude: 12.0\n\nSarajevo is located at the longitude of 12.0 and the latitude of 43.0.\n\nSarajevo is located in the Europe region of the world.\n", "full_output": "The geo-coordinates of Sarajevo are:\n\nLatitude: 43.0\n\nLongitude: 12.0\n\nSarajevo is located at the longitude of 12.0 and the latitude of 43.0.\n\nSarajevo is located in the Europe region of the world.\n", "model": "opt", "model_size": "13b", "p_type": "0", "p_length": "zero-shot"}, {"Country": "ba", "City": "tuzla", "AccentCity": "Tuzla", "Region": "01", "Population": 142484.0, "Latitude": 44.5427778, "Longitude": 18.6694444, "output": ":\n\nLatitude: 42.9\n\nLongitude: 18.8\n\nThe coordinates of Tuzla are:\n\nLatitude: 42.9\n\nLongitude: 18.8\n\nThe coordinates of Tuzla are:\n\nLatitude: 42.", "full_output": "The geo-coordinates of Tuzla are:\n\nLatitude: 42.9\n\nLongitude: 18.8\n\nThe coordinates of Tuzla are:\n\nLatitude: 42.9\n\nLongitude: 18.8\n\nThe coordinates of Tuzla are:\n\nLatitude: 42.", "model": "opt", "model_size": "13b", "p_type": "0", "p_length": "zero-shot"}, {"Country": "ba", "City": "zenica", "AccentCity": "Zenica", "Region": "01", "Population": 164422.0, "Latitude": 44.2013889, "Longitude": 17.9063889, "output": ":\n\nLatitude: 42.0\n\nLongitude: 20.0\n\nThe population of Zenica is:\n\nThe currency of Zenica is:\n\nThe Zenica time zone is:\n\nThe Zenica area code is:\n\nThe Zenica area code", "full_output": "The geo-coordinates of Zenica are:\n\nLatitude: 42.0\n\nLongitude: 20.0\n\nThe population of Zenica is:\n\nThe currency of Zenica is:\n\nThe Zenica time zone is:\n\nThe Zenica area code is:\n\nThe Zenica area code", "model": "opt", "model_size": "13b", "p_type": "0", "p_length": "zero-shot"}, {"Country": "bd", "City": "barisal", "AccentCity": "Barisal", "Region": "84", "Population": 280437.0, "Latitude": 22.7, "Longitude": 90.3666667, "output": "                                                            ", "full_output": "The geo-coordinates of Barisal are                                                            ", "model": "opt", "model_size": "13b", "p_type": "0", "p_length": "zero-shot"}, {"Country": "bd", "City": "bhairab bazar", "AccentCity": "Bhairab Bazar", "Region": "81", "Population": 105470.0, "Latitude": 24.0666667, "Longitude": 90.9666667, "output": ":\nLatitude: 25.8333\nLongitude: 77.8333\nBhairab Bazar is located at the latitude of 25.8333 and the longitude of 77.8333. Bhairab Bazar is located in the India state of Uttar Pradesh. The geographical", "full_output": "The geo-coordinates of Bhairab Bazar are:\nLatitude: 25.8333\nLongitude: 77.8333\nBhairab Bazar is located at the latitude of 25.8333 and the longitude of 77.8333. Bhairab Bazar is located in the India state of Uttar Pradesh. The geographical", "model": "opt", "model_size": "13b", "p_type": "0", "p_length": "zero-shot"}, {"Country": "bd", "City": "chandpur", "AccentCity": "Chandpur", "Region": "80", "Population": 120183.0, "Latitude": 23.15, "Longitude": 90.7166667, "output": " (Latitude: 22.8333, Longitude: 87.8333). Chandpur is located at the longitude of 87.8333 and latitude of 22.8333. Chandpur is located in the India state of West Bengal. The geographical coordinates of Chandpur is 22.8", "full_output": "The geo-coordinates of Chandpur are (Latitude: 22.8333, Longitude: 87.8333). Chandpur is located at the longitude of 87.8333 and latitude of 22.8333. Chandpur is located in the India state of West Bengal. The geographical coordinates of Chandpur is 22.8", "model": "opt", "model_size": "13b", "p_type": "0", "p_length": "zero-shot"}, {"Country": "bd", "City": "dhaka", "AccentCity": "Dhaka", "Region": "81", "Population": 6493177.0, "Latitude": 23.7230556, "Longitude": 90.4086111, "output": "\n\nDhaka is located at\n\nDhaka is located at\n\nDhaka is located at\n\nDhaka is located at\n\nDhaka is located at\n\nDhaka is located at\n\nDhaka is located at\n\nDh", "full_output": "The geo-coordinates of Dhaka are\n\nDhaka is located at\n\nDhaka is located at\n\nDhaka is located at\n\nDhaka is located at\n\nDhaka is located at\n\nDhaka is located at\n\nDhaka is located at\n\nDh", "model": "opt", "model_size": "13b", "p_type": "0", "p_length": "zero-shot"}, {"Country": "bd", "City": "dinajpur", "AccentCity": "Dinajpur", "Region": "83", "Population": 206251.0, "Latitude": 25.6333333, "Longitude": 88.6333333, "output": ":                                                           ", "full_output": "The geo-coordinates of Dinajpur are:                                                           ", "model": "opt", "model_size": "13b", "p_type": "0", "p_length": "zero-shot"}, {"Country": "bd", "City": "faridpur", "AccentCity": "Faridpur", "Region": "81", "Population": 112200.0, "Latitude": 23.6, "Longitude": 89.83333329999999, "output": ":\nLatitude: 22.8\nLongitude: 87.8\n\nFaridpur is located in Bangladesh at the longitude of 87.8 and latitude of 22.8. The geographical coordinates of Faridpur are: 22.8\u00b0N 87.8\u00b0E.\n", "full_output": "The geo-coordinates of Faridpur are:\nLatitude: 22.8\nLongitude: 87.8\n\nFaridpur is located in Bangladesh at the longitude of 87.8 and latitude of 22.8. The geographical coordinates of Faridpur are: 22.8\u00b0N 87.8\u00b0E.\n", "model": "opt", "model_size": "13b", "p_type": "0", "p_length": "zero-shot"}, {"Country": "bd", "City": "gazipur", "AccentCity": "Gazipur", "Region": "81", "Population": 132249.0, "Latitude": 23.8, "Longitude": 90.65, "output": " -19.967\u00b0N and 87.967\u00b0E and its original name (with diacritics) is Gazipur.\n\nGazipur is located at the longitude of -19.967\u00b0N and latitude of 87.967\u00b0E in", "full_output": "The geo-coordinates of Gazipur are -19.967\u00b0N and 87.967\u00b0E and its original name (with diacritics) is Gazipur.\n\nGazipur is located at the longitude of -19.967\u00b0N and latitude of 87.967\u00b0E in", "model": "opt", "model_size": "13b", "p_type": "0", "p_length": "zero-shot"}, {"Country": "bd", "City": "jamalpur", "AccentCity": "Jamalpur", "Region": "81", "Population": 167914.0, "Latitude": 24.9166667, "Longitude": 89.9333333, "output": ": Latitude: 25.8333, Longitude: 87.8333.\n\nJamalpur is located in India at the longitude of 87.8333 and latitude of 25.8333.\n\nThe geographical coordinates of Jamalpur are: 25.8333 latitude, 87", "full_output": "The geo-coordinates of Jamalpur are: Latitude: 25.8333, Longitude: 87.8333.\n\nJamalpur is located in India at the longitude of 87.8333 and latitude of 25.8333.\n\nThe geographical coordinates of Jamalpur are: 25.8333 latitude, 87", "model": "opt", "model_size": "13b", "p_type": "0", "p_length": "zero-shot"}, {"Country": "bd", "City": "khulna", "AccentCity": "Khulna", "Region": "82", "Population": 1342429.0, "Latitude": 22.8, "Longitude": 89.55, "output": ":\n\nLatitude :\n\nLongitude :\n\nArea code of Khulna is :\n\nGet in Touch\n\nIf you would like to find out more about how we can help you, please give us a call or drop us an email.\nWe welcome your comments and", "full_output": "The geo-coordinates of Khulna are:\n\nLatitude :\n\nLongitude :\n\nArea code of Khulna is :\n\nGet in Touch\n\nIf you would like to find out more about how we can help you, please give us a call or drop us an email.\nWe welcome your comments and", "model": "opt", "model_size": "13b", "p_type": "0", "p_length": "zero-shot"}, {"Country": "bd", "City": "narayanganj", "AccentCity": "Narayanganj", "Region": "81", "Population": 223773.0, "Latitude": 23.6233333, "Longitude": 90.5011111, "output": ":                                                           ", "full_output": "The geo-coordinates of Narayanganj are:                                                           ", "model": "opt", "model_size": "13b", "p_type": "0", "p_length": "zero-shot"}, {"Country": "bd", "City": "narsingdi", "AccentCity": "Narsingdi", "Region": "81", "Population": 281110.0, "Latitude": 23.9208333, "Longitude": 90.7180556, "output": ":\n\nNarsingdi is a city and a municipality in Narsingdi District in the Barisal Division of southern-central Bangladesh.\n\nGeography\nNarsingdi is located at   . It has an average elevation of .\n\nDemographics\nAccording to the", "full_output": "The geo-coordinates of Narsingdi are:\n\nNarsingdi is a city and a municipality in Narsingdi District in the Barisal Division of southern-central Bangladesh.\n\nGeography\nNarsingdi is located at   . It has an average elevation of .\n\nDemographics\nAccording to the", "model": "opt", "model_size": "13b", "p_type": "0", "p_length": "zero-shot"}, {"Country": "bd", "City": "nawabganj", "AccentCity": "Nawabganj", "Region": "83", "Population": 142373.0, "Latitude": 24.6, "Longitude": 88.2833333, "output": " Latitude: 26.8333 and Longitude: 87.8333. Nawabganj is located at Indian state Uttar Pradesh. The geographical coordinates of Nawabganj are: 26.8333 latitude, 87.8333 longitude in India.\n\nNawabganj", "full_output": "The geo-coordinates of Nawabganj are Latitude: 26.8333 and Longitude: 87.8333. Nawabganj is located at Indian state Uttar Pradesh. The geographical coordinates of Nawabganj are: 26.8333 latitude, 87.8333 longitude in India.\n\nNawabganj", "model": "opt", "model_size": "13b", "p_type": "0", "p_length": "zero-shot"}, {"Country": "bd", "City": "pabna", "AccentCity": "Pabna", "Region": "81", "Population": 137904.0, "Latitude": 24.0, "Longitude": 89.25, "output": ":\n\nLatitude: 22.8\n\nLongitude: 87.5\n\nPabna is located in Bangladesh at the longitude of 87.5 and latitude of 22.8. The geographical coordinates of Pabna are: 22.8\u00b0N 87.5\u00b0E", "full_output": "The geo-coordinates of Pabna are:\n\nLatitude: 22.8\n\nLongitude: 87.5\n\nPabna is located in Bangladesh at the longitude of 87.5 and latitude of 22.8. The geographical coordinates of Pabna are: 22.8\u00b0N 87.5\u00b0E", "model": "opt", "model_size": "13b", "p_type": "0", "p_length": "zero-shot"}, {"Country": "bd", "City": "rajshahi", "AccentCity": "Rajshahi", "Region": "81", "Population": 700206.0, "Latitude": 24.3666667, "Longitude": 88.6, "output": ":                                                           ", "full_output": "The geo-coordinates of Rajshahi are:                                                           ", "model": "opt", "model_size": "13b", "p_type": "0", "p_length": "zero-shot"}, {"Country": "bd", "City": "rangpur", "AccentCity": "Rangpur", "Region": "83", "Population": 285586.0, "Latitude": 25.75, "Longitude": 89.25, "output": ":\nLatitude: 22.8\nLongitude: 93.8\n\nRangpur is located in Bangladesh at the longitude of 93.8 and latitude of 22.8. The geographical coordinates of Rangpur are: 22.8\u00b0 N, 93.8\u00b0 E.", "full_output": "The geo-coordinates of Rangpur are:\nLatitude: 22.8\nLongitude: 93.8\n\nRangpur is located in Bangladesh at the longitude of 93.8 and latitude of 22.8. The geographical coordinates of Rangpur are: 22.8\u00b0 N, 93.8\u00b0 E.", "model": "opt", "model_size": "13b", "p_type": "0", "p_length": "zero-shot"}, {"Country": "bd", "City": "satkhira", "AccentCity": "Satkhira", "Region": "82", "Population": 128933.0, "Latitude": 22.7166667, "Longitude": 89.1, "output": ":      Latitude:      Longitude:      Elevation:                                   ", "full_output": "The geo-coordinates of Satkhira are:      Latitude:      Longitude:      Elevation:                                   ", "model": "opt", "model_size": "13b", "p_type": "0", "p_length": "zero-shot"}, {"Country": "bd", "City": "sherpur", "AccentCity": "Sherpur", "Region": "81", "Population": 107431.0, "Latitude": 25.0166667, "Longitude": 90.0166667, "output": ":\nLatitude: 30.8333\nLongitude: 77.8333\n\nSherpur is located in Bangladesh at the longitude of 77.8333 and latitude of 30.8333. The current local time in Sherpur is: 3:43 pm (IST) Monday,", "full_output": "The geo-coordinates of Sherpur are:\nLatitude: 30.8333\nLongitude: 77.8333\n\nSherpur is located in Bangladesh at the longitude of 77.8333 and latitude of 30.8333. The current local time in Sherpur is: 3:43 pm (IST) Monday,", "model": "opt", "model_size": "13b", "p_type": "0", "p_length": "zero-shot"}, {"Country": "bd", "City": "sirajganj", "AccentCity": "Sirajganj", "Region": "81", "Population": 167501.0, "Latitude": 24.45, "Longitude": 89.7166667, "output": ":                                                           ", "full_output": "The geo-coordinates of Sirajganj are:                                                           ", "model": "opt", "model_size": "13b", "p_type": "0", "p_length": "zero-shot"}, {"Country": "bd", "City": "tungi", "AccentCity": "Tungi", "Region": "81", "Population": 337620.0, "Latitude": 23.89, "Longitude": 90.4058333, "output": " as follows: Latitude: 20.0\u00b0 North, Longitude: 71.0\u00b0 East.\n\nTungi is located at the longitude of 71.0\u00b0 East and latitude of 20.0\u00b0 North.\n\nTungi is located at the longitude of 71", "full_output": "The geo-coordinates of Tungi are as follows: Latitude: 20.0\u00b0 North, Longitude: 71.0\u00b0 East.\n\nTungi is located at the longitude of 71.0\u00b0 East and latitude of 20.0\u00b0 North.\n\nTungi is located at the longitude of 71", "model": "opt", "model_size": "13b", "p_type": "0", "p_length": "zero-shot"}, {"Country": "be", "City": "antwerp", "AccentCity": "Antwerp", "Region": "01", "Population": 459805.0, "Latitude": 51.216667, "Longitude": 4.416667, "output": ":\nLatitude: 51.5\nLongitude: -2.5\n\nThe coordinates of Antwerp are:\nLatitude: 51.5\nLongitude: -2.5\n\nThe coordinates of Antwerp are:\nLatitude: 51.5\nLong", "full_output": "The geo-coordinates of Antwerp are:\nLatitude: 51.5\nLongitude: -2.5\n\nThe coordinates of Antwerp are:\nLatitude: 51.5\nLongitude: -2.5\n\nThe coordinates of Antwerp are:\nLatitude: 51.5\nLong", "model": "opt", "model_size": "13b", "p_type": "0", "p_length": "zero-shot"}, {"Country": "be", "City": "brugge", "AccentCity": "Brugge", "Region": "09", "Population": 116709.0, "Latitude": 51.216667, "Longitude": 3.233333, "output": ":\nLatitude: 51.8\nLongitude: -2.8\n\nBrugge is located at the longitude of -2.8 and latitude of 51.8.\nThe current local time in Brugge is now 06:58 PM (Sunday). The local time", "full_output": "The geo-coordinates of Brugge are:\nLatitude: 51.8\nLongitude: -2.8\n\nBrugge is located at the longitude of -2.8 and latitude of 51.8.\nThe current local time in Brugge is now 06:58 PM (Sunday). The local time", "model": "opt", "model_size": "13b", "p_type": "0", "p_length": "zero-shot"}, {"Country": "be", "City": "brussels", "AccentCity": "Brussels", "Region": "11", "Population": 1019022.0, "Latitude": 50.833333, "Longitude": 4.3333330000000005, "output": ":\n\nLatitude: 51.9\n\nLongitude: 4.8\n\nThe coordinates of the city of Brussels are:\n\nLatitude: 51.9\n\nLongitude: 4.8\n\nThe coordinates of the city of Brussels are:\n\nLatitude:", "full_output": "The geo-coordinates of Brussels are:\n\nLatitude: 51.9\n\nLongitude: 4.8\n\nThe coordinates of the city of Brussels are:\n\nLatitude: 51.9\n\nLongitude: 4.8\n\nThe coordinates of the city of Brussels are:\n\nLatitude:", "model": "opt", "model_size": "13b", "p_type": "0", "p_length": "zero-shot"}, {"Country": "be", "City": "charleroi", "AccentCity": "Charleroi", "Region": "03", "Population": 200132.0, "Latitude": 50.416667, "Longitude": 4.433333, "output": ": Latitude: 50.8333; Longitude: -2.8333. Charleroi is located at an average elevation of 5 feet above sea level.\n\nCharleroi Weather Forecast\n\nCharleroi Weather Forecast. Providing a local 3 hourly Charleroi", "full_output": "The geo-coordinates of Charleroi are: Latitude: 50.8333; Longitude: -2.8333. Charleroi is located at an average elevation of 5 feet above sea level.\n\nCharleroi Weather Forecast\n\nCharleroi Weather Forecast. Providing a local 3 hourly Charleroi", "model": "opt", "model_size": "13b", "p_type": "0", "p_length": "zero-shot"}, {"Country": "be", "City": "gent", "AccentCity": "Gent", "Region": "08", "Population": 231493.0, "Latitude": 51.05, "Longitude": 3.716667, "output": ": Latitude: 50.7167, Longitude: -2.9761. The local timezone of Gent is Europe/Brussels, and the current local time of Gent is 13:25. The currency of Gent is Euro (EUR).\n\nThe distance between Gent", "full_output": "The geo-coordinates of Gent are: Latitude: 50.7167, Longitude: -2.9761. The local timezone of Gent is Europe/Brussels, and the current local time of Gent is 13:25. The currency of Gent is Euro (EUR).\n\nThe distance between Gent", "model": "opt", "model_size": "13b", "p_type": "0", "p_length": "zero-shot"}, {"Country": "be", "City": "liege", "AccentCity": "Li\u00e8ge", "Region": "04", "Population": 182597.0, "Latitude": 50.633333, "Longitude": 5.566667, "output": ":\n\nLatitude: 51.7167\n\nLongitude: -2.9076\n\nIf you want to change the location of Li\u00e8ge on the map, just drag the marker of Li\u00e8ge to the new position on the map. You can also zoom in or", "full_output": "The geo-coordinates of Li\u00e8ge are:\n\nLatitude: 51.7167\n\nLongitude: -2.9076\n\nIf you want to change the location of Li\u00e8ge on the map, just drag the marker of Li\u00e8ge to the new position on the map. You can also zoom in or", "model": "opt", "model_size": "13b", "p_type": "0", "p_length": "zero-shot"}, {"Country": "be", "City": "namur", "AccentCity": "Namur", "Region": "07", "Population": 106284.0, "Latitude": 50.466667, "Longitude": 4.866667, "output": ": Latitude: 50.8333, Longitude: 4.8333.\n\nNamur is located at the longitude of 4.8333 and latitude of 50.8333.\n\nThe current local time in Namur is: 12:00 AM (Monday). The", "full_output": "The geo-coordinates of Namur are: Latitude: 50.8333, Longitude: 4.8333.\n\nNamur is located at the longitude of 4.8333 and latitude of 50.8333.\n\nThe current local time in Namur is: 12:00 AM (Monday). The", "model": "opt", "model_size": "13b", "p_type": "0", "p_length": "zero-shot"}, {"Country": "bf", "City": "bobo dioulasso", "AccentCity": "Bobo Dioulasso", "Region": "51", "Population": 370809.0, "Latitude": 11.2, "Longitude": -4.3, "output": ":\n\nLatitude: 9.8333\n\nLongitude: -1.8333\n\nThe current local time in Bobo Dioulasso is:\n\nThe current local time in Bobo Dioulasso is:\n\nThe current local time in Bobo Dioulasso", "full_output": "The geo-coordinates of Bobo Dioulasso are:\n\nLatitude: 9.8333\n\nLongitude: -1.8333\n\nThe current local time in Bobo Dioulasso is:\n\nThe current local time in Bobo Dioulasso is:\n\nThe current local time in Bobo Dioulasso", "model": "opt", "model_size": "13b", "p_type": "0", "p_length": "zero-shot"}, {"Country": "bf", "City": "ouagadougou", "AccentCity": "Ouagadougou", "Region": "53", "Population": 1031330.0, "Latitude": 12.3702778, "Longitude": -1.5247222, "output": ":\n\nLatitude: 11.8\n\nLongitude: -3.8\n\nAn overview of Ouagadougou\n\nOuagadougou is the capital and largest city of Burkina Faso. Ouagadougou is located on the banks of the", "full_output": "The geo-coordinates of Ouagadougou are:\n\nLatitude: 11.8\n\nLongitude: -3.8\n\nAn overview of Ouagadougou\n\nOuagadougou is the capital and largest city of Burkina Faso. Ouagadougou is located on the banks of the", "model": "opt", "model_size": "13b", "p_type": "0", "p_length": "zero-shot"}, {"Country": "bg", "City": "burgas", "AccentCity": "Burgas", "Region": "39", "Population": 188554.0, "Latitude": 42.5, "Longitude": 27.4666667, "output": ":\n\nLatitude: 43.0\n\nLongitude: 21.0\n\nBurgas is located at the longitude of 21.0 and the latitude of 43.0.\n\nBurgas is located in Bulgaria, in the province of Burgas.\n\nThe", "full_output": "The geo-coordinates of Burgas are:\n\nLatitude: 43.0\n\nLongitude: 21.0\n\nBurgas is located at the longitude of 21.0 and the latitude of 43.0.\n\nBurgas is located in Bulgaria, in the province of Burgas.\n\nThe", "model": "opt", "model_size": "13b", "p_type": "0", "p_length": "zero-shot"}, {"Country": "bg", "City": "pleven", "AccentCity": "Pleven", "Region": "50", "Population": 132542.0, "Latitude": 43.4166667, "Longitude": 24.6166667, "output": ":\nLatitude: 42.7\nLongitude: 21.7\n\nPleven is located in the central part of Bulgaria, in the region of Pleven.\n\nPleven is the second largest city in Bulgaria, after the capital Sofia.\n\nPleven", "full_output": "The geo-coordinates of Pleven are:\nLatitude: 42.7\nLongitude: 21.7\n\nPleven is located in the central part of Bulgaria, in the region of Pleven.\n\nPleven is the second largest city in Bulgaria, after the capital Sofia.\n\nPleven", "model": "opt", "model_size": "13b", "p_type": "0", "p_length": "zero-shot"}, {"Country": "bg", "City": "plovdiv", "AccentCity": "Plovdiv", "Region": "51", "Population": 332088.0, "Latitude": 42.15, "Longitude": 24.75, "output": " 43\u00b0 18' 0\" North, 21\u00b0 36' 0\" East and the elevation of Plovdiv is 549 metres above sea level.\n\nPlovdiv is the second largest city in Bulgaria, after Sofia. It is the administrative centre of the Plovdiv Province and the", "full_output": "The geo-coordinates of Plovdiv are 43\u00b0 18' 0\" North, 21\u00b0 36' 0\" East and the elevation of Plovdiv is 549 metres above sea level.\n\nPlovdiv is the second largest city in Bulgaria, after Sofia. It is the administrative centre of the Plovdiv Province and the", "model": "opt", "model_size": "13b", "p_type": "0", "p_length": "zero-shot"}, {"Country": "bg", "City": "ruse", "AccentCity": "Ruse", "Region": "53", "Population": 157519.0, "Latitude": 43.8563889, "Longitude": 25.9708333, "output": " as follows:\nLatitude: 51.9\nLongitude: 21.9\n\nRuse is located at the coordinates 51.9\u00b0 N, 21.9\u00b0 E.\n\nRuse is located at the coordinates 51.9\u00b0 N, 21.9\u00b0 E.\n", "full_output": "The geo-coordinates of Ruse are as follows:\nLatitude: 51.9\nLongitude: 21.9\n\nRuse is located at the coordinates 51.9\u00b0 N, 21.9\u00b0 E.\n\nRuse is located at the coordinates 51.9\u00b0 N, 21.9\u00b0 E.\n", "model": "opt", "model_size": "13b", "p_type": "0", "p_length": "zero-shot"}, {"Country": "bg", "City": "sofia", "AccentCity": "Sofia", "Region": "42", "Population": 1062065.0, "Latitude": 42.6833333, "Longitude": 23.3166667, "output": "\n\n\n\n\n\n\n\n\n\n\n\nThe geo-", "full_output": "The geo-coordinates of Sofia are\n\nThe geo-coordinates of Sofia are\n\nThe geo-coordinates of Sofia are\n\nThe geo-coordinates of Sofia are\n\nThe geo-coordinates of Sofia are\n\nThe geo-coordinates of Sofia are\n\nThe geo-", "model": "opt", "model_size": "13b", "p_type": "0", "p_length": "zero-shot"}, {"Country": "bg", "City": "stara zagora", "AccentCity": "Stara Zagora", "Region": "59", "Population": 137760.0, "Latitude": 42.4327778, "Longitude": 25.6419444, "output": ":\nLatitude: 42.5\nLongitude: 21.5\n\nThe current local time in Stara Zagora, Bulgaria is: 10:00 AM (GMT+2). The local timezone is named \"Europe / Sofia\" with an UTC offset of 2 hours.", "full_output": "The geo-coordinates of Stara Zagora are:\nLatitude: 42.5\nLongitude: 21.5\n\nThe current local time in Stara Zagora, Bulgaria is: 10:00 AM (GMT+2). The local timezone is named \"Europe / Sofia\" with an UTC offset of 2 hours.", "model": "opt", "model_size": "13b", "p_type": "0", "p_length": "zero-shot"}, {"Country": "bg", "City": "varna", "AccentCity": "Varna", "Region": "61", "Population": 307952.0, "Latitude": 43.216666700000005, "Longitude": 27.9166667, "output": " 45.7\u00b0 N, 21.7\u00b0 E and the timezone is Europe/Varna. In the nearby areas of Varna you will find the timezone Europe/Varna (Europe/Varna is the timezone of Varna).\n\nThe current local time in Varna", "full_output": "The geo-coordinates of Varna are 45.7\u00b0 N, 21.7\u00b0 E and the timezone is Europe/Varna. In the nearby areas of Varna you will find the timezone Europe/Varna (Europe/Varna is the timezone of Varna).\n\nThe current local time in Varna", "model": "opt", "model_size": "13b", "p_type": "0", "p_length": "zero-shot"}, {"Country": "bh", "City": "manama", "AccentCity": "Manama", "Region": 2, "Population": 147097.0, "Latitude": 26.2361111, "Longitude": 50.5830556, "output": "\n\nManama is located at Latitude: 25.8333 and Longitude: 59.8333 .\n\nManama has an average global temperature (Kelvin) of 20.5 \u00b0C.\n\nManama has an average annual extreme minimum air temperature of -1.", "full_output": "The geo-coordinates of Manama are\n\nManama is located at Latitude: 25.8333 and Longitude: 59.8333 .\n\nManama has an average global temperature (Kelvin) of 20.5 \u00b0C.\n\nManama has an average annual extreme minimum air temperature of -1.", "model": "opt", "model_size": "13b", "p_type": "0", "p_length": "zero-shot"}, {"Country": "bi", "City": "bujumbura", "AccentCity": "Bujumbura", "Region": 2, "Population": 330539.0, "Latitude": -3.3761111000000006, "Longitude": 29.36, "output": "\n\nBujumbura is the capital and largest city of Burundi. Bujumbura is located on the shores of Lake Tanganyika and is the largest city in Burundi.\n\nBujumbura is the capital and largest city of Burundi. Buj", "full_output": "The geo-coordinates of Bujumbura are\n\nBujumbura is the capital and largest city of Burundi. Bujumbura is located on the shores of Lake Tanganyika and is the largest city in Burundi.\n\nBujumbura is the capital and largest city of Burundi. Buj", "model": "opt", "model_size": "13b", "p_type": "0", "p_length": "zero-shot"}, {"Country": "bj", "City": "abomey-calavi", "AccentCity": "Abomey-Calavi", "Region": 5, "Population": 385823.0, "Latitude": 6.45, "Longitude": 2.35, "output": ":\nLatitude: -1.833333333\nLongitude: 6.833333333\n\nThe current local time in Abomey-Calavi is:\n11:56 PM (Sunday)\n\nThe current local time in Abomey-Calavi is:\n11", "full_output": "The geo-coordinates of Abomey-Calavi are:\nLatitude: -1.833333333\nLongitude: 6.833333333\n\nThe current local time in Abomey-Calavi is:\n11:56 PM (Sunday)\n\nThe current local time in Abomey-Calavi is:\n11", "model": "opt", "model_size": "13b", "p_type": "0", "p_length": "zero-shot"}, {"Country": "bj", "City": "bohicon", "AccentCity": "Bohicon", "Region": 18, "Population": 125116.0, "Latitude": 7.2, "Longitude": 2.0666667000000003, "output": ":\n\nLatitude:\n\nLongitude:\n\nThe elevation of Bohicon is:\n\nBohicon is located in the following countries:\n\nBohicon is located in the following states:\n\nBohicon is located in the following counties:\n\nBoh", "full_output": "The geo-coordinates of Bohicon are:\n\nLatitude:\n\nLongitude:\n\nThe elevation of Bohicon is:\n\nBohicon is located in the following countries:\n\nBohicon is located in the following states:\n\nBohicon is located in the following counties:\n\nBoh", "model": "opt", "model_size": "13b", "p_type": "0", "p_length": "zero-shot"}, {"Country": "bj", "City": "cotonou", "AccentCity": "Cotonou", "Region": 14, "Population": 690584.0, "Latitude": 6.35, "Longitude": 2.4333333, "output": "\n\nCotonou is a city in Benin. The coordinates of Cotonou are\n\nLatitude :\n\nLongitude :\n\nThe population of Cotonou is\n\nThe currency of Cotonou is\n\nThe time zone of Cotonou is\n\nC", "full_output": "The geo-coordinates of Cotonou are\n\nCotonou is a city in Benin. The coordinates of Cotonou are\n\nLatitude :\n\nLongitude :\n\nThe population of Cotonou is\n\nThe currency of Cotonou is\n\nThe time zone of Cotonou is\n\nC", "model": "opt", "model_size": "13b", "p_type": "0", "p_length": "zero-shot"}, {"Country": "bj", "City": "djougou", "AccentCity": "Djougou", "Region": 13, "Population": 202834.0, "Latitude": 9.705, "Longitude": 1.6669444, "output": ":\nLatitude: -1.8333333333333\nLongitude: 25.8333333333333\nDjougou is located at an average elevation of 5 feet above sea level.\n\nDjougou Weather\n\nDjougou has a humid subtropical climate", "full_output": "The geo-coordinates of Djougou are:\nLatitude: -1.8333333333333\nLongitude: 25.8333333333333\nDjougou is located at an average elevation of 5 feet above sea level.\n\nDjougou Weather\n\nDjougou has a humid subtropical climate", "model": "opt", "model_size": "13b", "p_type": "0", "p_length": "zero-shot"}, {"Country": "bj", "City": "kandi", "AccentCity": "Kandi", "Region": 7, "Population": 109705.0, "Latitude": 11.134166699999998, "Longitude": 2.9386111, "output": ":\n\nLatitude: 36.0\n\nLongitude: -77.0\n\nKandi is located at the longitude of -77.0 and latitude of 36.0.\n\nThe current local time in Kandi is: 00:00 AM (UTC). The local", "full_output": "The geo-coordinates of Kandi are:\n\nLatitude: 36.0\n\nLongitude: -77.0\n\nKandi is located at the longitude of -77.0 and latitude of 36.0.\n\nThe current local time in Kandi is: 00:00 AM (UTC). The local", "model": "opt", "model_size": "13b", "p_type": "0", "p_length": "zero-shot"}, {"Country": "bj", "City": "parakou", "AccentCity": "Parakou", "Region": 10, "Population": 163759.0, "Latitude": 9.35, "Longitude": 2.6166667, "output": ":\n\nLatitude: 20.8333\n\nLongitude: -2.8333\n\nAn overview of Parakou\n\nParakou is a town and commune of Angola, located in the province of Cuanza Norte. The town of Parakou is", "full_output": "The geo-coordinates of Parakou are:\n\nLatitude: 20.8333\n\nLongitude: -2.8333\n\nAn overview of Parakou\n\nParakou is a town and commune of Angola, located in the province of Cuanza Norte. The town of Parakou is", "model": "opt", "model_size": "13b", "p_type": "0", "p_length": "zero-shot"}, {"Country": "bo", "City": "cochabamba", "AccentCity": "Cochabamba", "Region": 2, "Population": 900440.0, "Latitude": -17.3833333, "Longitude": -66.15, "output": ":\n\nLatitude:\n\nLongitude:\n\nThe current local time in Cochabamba is:\n\nThe current local time in Cochabamba is:\n\nThe current local time in Cochabamba is:\n\nThe current local time in Cochabamba is:\n", "full_output": "The geo-coordinates of Cochabamba are:\n\nLatitude:\n\nLongitude:\n\nThe current local time in Cochabamba is:\n\nThe current local time in Cochabamba is:\n\nThe current local time in Cochabamba is:\n\nThe current local time in Cochabamba is:\n", "model": "opt", "model_size": "13b", "p_type": "0", "p_length": "zero-shot"}, {"Country": "bo", "City": "la paz", "AccentCity": "La Paz", "Region": 4, "Population": 812819.0, "Latitude": -16.5, "Longitude": -68.15, "output": ":\n\nLatitude:\n\n-8.0\n\nLongitude:\n\n-97.0\n\nThe current local time in La Paz is:\n\nWednesday, December 19, 2018 2:00 AM\n\nLa Paz weather forecast\n\nToday\n\nPart", "full_output": "The geo-coordinates of La Paz are:\n\nLatitude:\n\n-8.0\n\nLongitude:\n\n-97.0\n\nThe current local time in La Paz is:\n\nWednesday, December 19, 2018 2:00 AM\n\nLa Paz weather forecast\n\nToday\n\nPart", "model": "opt", "model_size": "13b", "p_type": "0", "p_length": "zero-shot"}, {"Country": "bo", "City": "oruro", "AccentCity": "Oruro", "Region": 5, "Population": 208687.0, "Latitude": -17.9833333, "Longitude": -67.15, "output": ":\n\nLatitude:\n\nLongitude:\n\nThe current local time in Oruro is:\n\nThe current local time in Oruro is:\n\nThe current local time in Oruro is:\n\nThe current local time in Oruro is:\n", "full_output": "The geo-coordinates of Oruro are:\n\nLatitude:\n\nLongitude:\n\nThe current local time in Oruro is:\n\nThe current local time in Oruro is:\n\nThe current local time in Oruro is:\n\nThe current local time in Oruro is:\n", "model": "opt", "model_size": "13b", "p_type": "0", "p_length": "zero-shot"}, {"Country": "bo", "City": "potosi", "AccentCity": "Potos\u00ed", "Region": 7, "Population": 141254.0, "Latitude": -19.5836111, "Longitude": -65.7530556, "output": ":\n\nLatitude:\n\n-79.8\n\nLongitude:\n\n-79.8\n\nThe current local time in Potos\u00ed is:\n\nWednesday, December 19, 2018, 12:00 am\n\nThe current local time in Potos\u00ed is:", "full_output": "The geo-coordinates of Potos\u00ed are:\n\nLatitude:\n\n-79.8\n\nLongitude:\n\n-79.8\n\nThe current local time in Potos\u00ed is:\n\nWednesday, December 19, 2018, 12:00 am\n\nThe current local time in Potos\u00ed is:", "model": "opt", "model_size": "13b", "p_type": "0", "p_length": "zero-shot"}, {"Country": "bo", "City": "sucre", "AccentCity": "Sucre", "Region": 1, "Population": 224846.0, "Latitude": -19.0430556, "Longitude": -65.25916670000001, "output": ":\n\nLatitude:\n\n33.8333\n\nLongitude:\n\n-99.8333\n\nAn overview of Sucre\n\nSucre is the capital and largest city of the Bolivian department of Chuquisaca. Sucre is located in the", "full_output": "The geo-coordinates of Sucre are:\n\nLatitude:\n\n33.8333\n\nLongitude:\n\n-99.8333\n\nAn overview of Sucre\n\nSucre is the capital and largest city of the Bolivian department of Chuquisaca. Sucre is located in the", "model": "opt", "model_size": "13b", "p_type": "0", "p_length": "zero-shot"}, {"Country": "bo", "City": "tarija", "AccentCity": "Tarija", "Region": 9, "Population": 159275.0, "Latitude": -21.5166667, "Longitude": -64.75, "output": ":\n\nLatitude: -8.8\n\nLongitude: -97.8\n\nThe current local time in Tarija is:\n\nWednesday, December 19, 2018, 12:00 am\n\nThe current local time in Tarija is:\n\nWednesday,", "full_output": "The geo-coordinates of Tarija are:\n\nLatitude: -8.8\n\nLongitude: -97.8\n\nThe current local time in Tarija is:\n\nWednesday, December 19, 2018, 12:00 am\n\nThe current local time in Tarija is:\n\nWednesday,", "model": "opt", "model_size": "13b", "p_type": "0", "p_length": "zero-shot"}, {"Country": "br", "City": "alagoinhas", "AccentCity": "Alagoinhas", "Region": 5, "Population": 122692.0, "Latitude": -12.116667, "Longitude": -38.433333000000005, "output": ":\nLatitude: -2.0\nLongitude: -55.0\nThe elevation of Alagoinhas is:\nLatitude: -2.0\nLongitude: -55.0\nThe population of Alagoinhas is:\nLatitude: -2.", "full_output": "The geo-coordinates of Alagoinhas are:\nLatitude: -2.0\nLongitude: -55.0\nThe elevation of Alagoinhas is:\nLatitude: -2.0\nLongitude: -55.0\nThe population of Alagoinhas is:\nLatitude: -2.", "model": "opt", "model_size": "13b", "p_type": "0", "p_length": "zero-shot"}, {"Country": "br", "City": "americana", "AccentCity": "Americana", "Region": 27, "Population": 196026.0, "Latitude": -22.740278, "Longitude": -47.334444, "output": " as follows:\n\nLatitude:\n\nLongitude:\n\n39.8\n\nN\n\n-118.9\n\nW\n\nLongitude:\n\n39.8\n\nN\n\n-118.9\n\nW\n\nLongitude:\n\n39", "full_output": "The geo-coordinates of Americana are as follows:\n\nLatitude:\n\nLongitude:\n\n39.8\n\nN\n\n-118.9\n\nW\n\nLongitude:\n\n39.8\n\nN\n\n-118.9\n\nW\n\nLongitude:\n\n39", "model": "opt", "model_size": "13b", "p_type": "0", "p_length": "zero-shot"}, {"Country": "br", "City": "ananindeua", "AccentCity": "Ananindeua", "Region": 16, "Population": 433956.0, "Latitude": -1.366667, "Longitude": -48.383333, "output": "\n\nAnanindeua is located in India at the longitude of 77.9 and latitude of 25.9. Ananindeua is located in the Indian state of Tamil Nadu.\n\nAnanindeua is located in the Indian union territory of Puducherry", "full_output": "The geo-coordinates of Ananindeua are\n\nAnanindeua is located in India at the longitude of 77.9 and latitude of 25.9. Ananindeua is located in the Indian state of Tamil Nadu.\n\nAnanindeua is located in the Indian union territory of Puducherry", "model": "opt", "model_size": "13b", "p_type": "0", "p_length": "zero-shot"}, {"Country": "br", "City": "anapolis", "AccentCity": "An\u00e1polis", "Region": 29, "Population": 319592.0, "Latitude": -16.333333, "Longitude": -48.966667, "output": ":\n\nLatitude: -23.0\n\nLongitude: 55.0\n\nAn\u00e1polis is located in Brazil at the longitude of 55.0 and latitude of -23.0. The current local time in An\u00e1polis is . An\u00e1polis elevation", "full_output": "The geo-coordinates of An\u00e1polis are:\n\nLatitude: -23.0\n\nLongitude: 55.0\n\nAn\u00e1polis is located in Brazil at the longitude of 55.0 and latitude of -23.0. The current local time in An\u00e1polis is . An\u00e1polis elevation", "model": "opt", "model_size": "13b", "p_type": "0", "p_length": "zero-shot"}, {"Country": "br", "City": "angra dos reis", "AccentCity": "Angra dos Reis", "Region": 21, "Population": 153637.0, "Latitude": -23.0, "Longitude": -44.3, "output": ":\n\nLatitude: -1.833333333333333\n\nLongitude: -3.833333333333333\n\nThe current local time in Angra dos Reis is:\n\nThe current weather conditions for Angra dos Reis are:\n\nThe temperature is", "full_output": "The geo-coordinates of Angra dos Reis are:\n\nLatitude: -1.833333333333333\n\nLongitude: -3.833333333333333\n\nThe current local time in Angra dos Reis is:\n\nThe current weather conditions for Angra dos Reis are:\n\nThe temperature is", "model": "opt", "model_size": "13b", "p_type": "0", "p_length": "zero-shot"}, {"Country": "br", "City": "apucarana", "AccentCity": "Apucarana", "Region": 18, "Population": 107086.0, "Latitude": -23.55, "Longitude": -51.483333, "output": ":\nLatitude: -3.5\nLongitude: -77.5\n\nApucarana is located at the longitude of -77.5 and latitude of -3.5.\nThe current local time in Apucarana is: 3:33 pm, Sunday", "full_output": "The geo-coordinates of Apucarana are:\nLatitude: -3.5\nLongitude: -77.5\n\nApucarana is located at the longitude of -77.5 and latitude of -3.5.\nThe current local time in Apucarana is: 3:33 pm, Sunday", "model": "opt", "model_size": "13b", "p_type": "0", "p_length": "zero-shot"}, {"Country": "br", "City": "aracaju", "AccentCity": "Aracaju", "Region": 28, "Population": 490184.0, "Latitude": -10.916667, "Longitude": -37.066667, "output": ":\nLatitude: -23.5\nLongitude: -55.5\n\nAracaju is located at the longitude of -55.5 and latitude of -23.5.\nAracaju is located at the altitude of 5 meters above sea level.\n", "full_output": "The geo-coordinates of Aracaju are:\nLatitude: -23.5\nLongitude: -55.5\n\nAracaju is located at the longitude of -55.5 and latitude of -23.5.\nAracaju is located at the altitude of 5 meters above sea level.\n", "model": "opt", "model_size": "13b", "p_type": "0", "p_length": "zero-shot"}, {"Country": "br", "City": "aracatuba", "AccentCity": "Ara\u00e7atuba", "Region": 27, "Population": 170028.0, "Latitude": -21.2, "Longitude": -50.416667, "output": " located in the state of S\u00e3o Paulo, Brazil.\nAra\u00e7atuba is located in the South Region of Brazil.\nAra\u00e7atuba is located in the Central Region of Brazil.\nAra\u00e7atuba is located in the South Region of Brazil.\nAra\u00e7", "full_output": "The geo-coordinates of Ara\u00e7atuba are located in the state of S\u00e3o Paulo, Brazil.\nAra\u00e7atuba is located in the South Region of Brazil.\nAra\u00e7atuba is located in the Central Region of Brazil.\nAra\u00e7atuba is located in the South Region of Brazil.\nAra\u00e7", "model": "opt", "model_size": "13b", "p_type": "0", "p_length": "zero-shot"}, {"Country": "br", "City": "araguaina", "AccentCity": "Aragua\u00edna", "Region": 31, "Population": 114959.0, "Latitude": -7.16, "Longitude": -48.0575, "output": ":\n\nLatitude: -23.8\n\nLongitude: -71.8\n\nAragua\u00edna is located in Brazil at the longitude of 71.8 and latitude of -23.8. The current local time in Aragua\u00edna is:\n\n", "full_output": "The geo-coordinates of Aragua\u00edna are:\n\nLatitude: -23.8\n\nLongitude: -71.8\n\nAragua\u00edna is located in Brazil at the longitude of 71.8 and latitude of -23.8. The current local time in Aragua\u00edna is:\n\n", "model": "opt", "model_size": "13b", "p_type": "0", "p_length": "zero-shot"}, {"Country": "br", "City": "arapiraca", "AccentCity": "Arapiraca", "Region": 2, "Population": 166566.0, "Latitude": -9.75, "Longitude": -36.65, "output": ":\nLatitude: -3.7167\nLongitude: -71.8\nDMS (Degrees Minutes Seconds) of Arapiraca are:\nDMS (Degrees Minutes Seconds): -3.7167\nDMS (Degrees Minutes Seconds):", "full_output": "The geo-coordinates of Arapiraca are:\nLatitude: -3.7167\nLongitude: -71.8\nDMS (Degrees Minutes Seconds) of Arapiraca are:\nDMS (Degrees Minutes Seconds): -3.7167\nDMS (Degrees Minutes Seconds):", "model": "opt", "model_size": "13b", "p_type": "0", "p_length": "zero-shot"}, {"Country": "br", "City": "araraquara", "AccentCity": "Araraquara", "Region": 27, "Population": 185191.0, "Latitude": -21.783333, "Longitude": -48.166667, "output": ":\n\nLatitude: -23.8333\n\nLongitude: -55.8333\n\nAraraquara Weather by Month\n\nAraraquara Weather by Month\n\nAraraquara Weather by Month\n\nAraraquara Weather by Month\n\nAr", "full_output": "The geo-coordinates of Araraquara are:\n\nLatitude: -23.8333\n\nLongitude: -55.8333\n\nAraraquara Weather by Month\n\nAraraquara Weather by Month\n\nAraraquara Weather by Month\n\nAraraquara Weather by Month\n\nAr", "model": "opt", "model_size": "13b", "p_type": "0", "p_length": "zero-shot"}, {"Country": "br", "City": "araras", "AccentCity": "Araras", "Region": 27, "Population": 107465.0, "Latitude": -22.366667, "Longitude": -47.383333, "output": ":\n\nLatitude: -23.8333\n\nLongitude: 55.8333\n\nAraras Weather by Month\n\nAraras Weather by Year\n\nAraras Weather by Day\n\nAraras Weather by Hour\n\nAraras Weather by Minute", "full_output": "The geo-coordinates of Araras are:\n\nLatitude: -23.8333\n\nLongitude: 55.8333\n\nAraras Weather by Month\n\nAraras Weather by Year\n\nAraras Weather by Day\n\nAraras Weather by Hour\n\nAraras Weather by Minute", "model": "opt", "model_size": "13b", "p_type": "0", "p_length": "zero-shot"}, {"Country": "br", "City": "araruama", "AccentCity": "Araruama", "Region": 21, "Population": 109638.0, "Latitude": -22.883333, "Longitude": -42.333333, "output": ":\nLatitude: -23.8333\nLongitude: -58.8333\n\nAraruama is located in the state of Rio de Janeiro, Brazil.\nAraruama is located at the longitude of -58.8333 and latitude of -23.8333", "full_output": "The geo-coordinates of Araruama are:\nLatitude: -23.8333\nLongitude: -58.8333\n\nAraruama is located in the state of Rio de Janeiro, Brazil.\nAraruama is located at the longitude of -58.8333 and latitude of -23.8333", "model": "opt", "model_size": "13b", "p_type": "0", "p_length": "zero-shot"}, {"Country": "br", "City": "araucaria", "AccentCity": "Arauc\u00e1ria", "Region": 18, "Population": 111303.0, "Latitude": -25.583333, "Longitude": -49.416667, "output": ":\n\nLatitude: -33.0333\n\nLongitude: -55.0333\n\nArauc\u00e1ria weather by month\n\nJanuary\n\nFebruary\n\nMarch\n\nApril\n\nMay\n\nJune\n\nJuly\n\nAugust\n\nSeptember\n\n", "full_output": "The geo-coordinates of Arauc\u00e1ria are:\n\nLatitude: -33.0333\n\nLongitude: -55.0333\n\nArauc\u00e1ria weather by month\n\nJanuary\n\nFebruary\n\nMarch\n\nApril\n\nMay\n\nJune\n\nJuly\n\nAugust\n\nSeptember\n\n", "model": "opt", "model_size": "13b", "p_type": "0", "p_length": "zero-shot"}, {"Country": "br", "City": "atibaia", "AccentCity": "Atibaia", "Region": 27, "Population": 110970.0, "Latitude": -23.124167, "Longitude": -46.562222, "output": ":\n\nLatitude:\n\n-23.8\n\nLongitude:\n\n51.8\n\nDirection:\n\nNorth\n\nDistance from Atibaia\n\nThe distance between Atibaia and any other city or town in the world. The distance between Atiba", "full_output": "The geo-coordinates of Atibaia are:\n\nLatitude:\n\n-23.8\n\nLongitude:\n\n51.8\n\nDirection:\n\nNorth\n\nDistance from Atibaia\n\nThe distance between Atibaia and any other city or town in the world. The distance between Atiba", "model": "opt", "model_size": "13b", "p_type": "0", "p_length": "zero-shot"}, {"Country": "br", "City": "barbacena", "AccentCity": "Barbacena", "Region": 15, "Population": 122213.0, "Latitude": -21.233333, "Longitude": -43.766667, "output": ":\nLatitude: 36.066\u00b0\nLongitude: -73.066\u00b0\n\nThe current local time in Barbacena is: 12:00 AM (UTC-3). The local timezone is named \"Europe / Madrid\" with an UTC offset of 3 hours.", "full_output": "The geo-coordinates of Barbacena are:\nLatitude: 36.066\u00b0\nLongitude: -73.066\u00b0\n\nThe current local time in Barbacena is: 12:00 AM (UTC-3). The local timezone is named \"Europe / Madrid\" with an UTC offset of 3 hours.", "model": "opt", "model_size": "13b", "p_type": "0", "p_length": "zero-shot"}, {"Country": "br", "City": "barra mansa", "AccentCity": "Barra Mansa", "Region": 21, "Population": 164054.0, "Latitude": -22.533333, "Longitude": -44.183333000000005, "output": ":\nLatitude: 19.8333\nLongitude: -3.8333\n\nThe current local time in Barra Mansa is: 1:00 PM (GMT -3:00). The local timezone is named \"Europe / Bratislava\" with an UTC offset", "full_output": "The geo-coordinates of Barra Mansa are:\nLatitude: 19.8333\nLongitude: -3.8333\n\nThe current local time in Barra Mansa is: 1:00 PM (GMT -3:00). The local timezone is named \"Europe / Bratislava\" with an UTC offset", "model": "opt", "model_size": "13b", "p_type": "0", "p_length": "zero-shot"}, {"Country": "br", "City": "barreiras", "AccentCity": "Barreiras", "Region": 5, "Population": 158296.0, "Latitude": -12.133333, "Longitude": -45.0, "output": ":\n\nLatitude:\n\n-23.8\n\nLongitude:\n\n-58.8\n\nThe current local time in Barreiras is:\n\nTuesday, 20th of May, 2014, 12:00 am\n\nThe local timezone in Barre", "full_output": "The geo-coordinates of Barreiras are:\n\nLatitude:\n\n-23.8\n\nLongitude:\n\n-58.8\n\nThe current local time in Barreiras is:\n\nTuesday, 20th of May, 2014, 12:00 am\n\nThe local timezone in Barre", "model": "opt", "model_size": "13b", "p_type": "0", "p_length": "zero-shot"}, {"Country": "br", "City": "barretos", "AccentCity": "Barretos", "Region": 27, "Population": 101222.0, "Latitude": -20.55, "Longitude": -48.55, "output": ":\n\nLatitude: -2.7167\n\nLongitude: -73.8\n\nThe current local time in Barretos is:\n\nWednesday, December 19, 2018, 12:00 am\n\nBarretos weather forecast\n\nToday\n\nTomorrow\n\n", "full_output": "The geo-coordinates of Barretos are:\n\nLatitude: -2.7167\n\nLongitude: -73.8\n\nThe current local time in Barretos is:\n\nWednesday, December 19, 2018, 12:00 am\n\nBarretos weather forecast\n\nToday\n\nTomorrow\n\n", "model": "opt", "model_size": "13b", "p_type": "0", "p_length": "zero-shot"}, {"Country": "br", "City": "barueri", "AccentCity": "Barueri", "Region": 27, "Population": 251999.0, "Latitude": -23.516667, "Longitude": -46.883333, "output": ":\nLatitude: -23.8333\nLongitude: -55.8333\n\nThe current local time in Barueri is: 12:00 AM (Tuesday). The local timezone is named \"America/Rio_de_Janeiro\" with an UTC offset of", "full_output": "The geo-coordinates of Barueri are:\nLatitude: -23.8333\nLongitude: -55.8333\n\nThe current local time in Barueri is: 12:00 AM (Tuesday). The local timezone is named \"America/Rio_de_Janeiro\" with an UTC offset of", "model": "opt", "model_size": "13b", "p_type": "0", "p_length": "zero-shot"}, {"Country": "br", "City": "bauru", "AccentCity": "Bauru", "Region": 27, "Population": 335031.0, "Latitude": -22.316667, "Longitude": -49.066667, "output": " .\nBauru is located in the state of S\u00e3o Paulo in Brazil.\nBauru is located in the local time zone (GMT -3). The current local time in Bauru is .\n\nThe current local time in Bauru is . The standard time zone for", "full_output": "The geo-coordinates of Bauru are .\nBauru is located in the state of S\u00e3o Paulo in Brazil.\nBauru is located in the local time zone (GMT -3). The current local time in Bauru is .\n\nThe current local time in Bauru is . The standard time zone for", "model": "opt", "model_size": "13b", "p_type": "0", "p_length": "zero-shot"}, {"Country": "br", "City": "belem", "AccentCity": "Bel\u00e9m", "Region": 16, "Population": 1407737.0, "Latitude": -1.45, "Longitude": -48.483333, "output": ":\n\nLatitude:\n\n-23.0\n\nLongitude:\n\n-55.0\n\nDirection from Bel\u00e9m\n\nBel\u00e9m\n\nBel\u00e9m\n\nBel\u00e9m\n\nBel\u00e9m\n\nBel\u00e9m\n\nBel\u00e9", "full_output": "The geo-coordinates of Bel\u00e9m are:\n\nLatitude:\n\n-23.0\n\nLongitude:\n\n-55.0\n\nDirection from Bel\u00e9m\n\nBel\u00e9m\n\nBel\u00e9m\n\nBel\u00e9m\n\nBel\u00e9m\n\nBel\u00e9m\n\nBel\u00e9", "model": "opt", "model_size": "13b", "p_type": "0", "p_length": "zero-shot"}, {"Country": "br", "City": "belford roxo", "AccentCity": "Belford Roxo", "Region": 21, "Population": 466101.0, "Latitude": -22.761995, "Longitude": -43.404654, "output": ":\nLatitude: -0.066\nLongitude: -0.066\n\nThe current local time in Belford Roxo is: 1:00 PM (Sunday). The local timezone is named \"Europe / Madrid\" with an UTC offset of 2 hours. Depending on", "full_output": "The geo-coordinates of Belford Roxo are:\nLatitude: -0.066\nLongitude: -0.066\n\nThe current local time in Belford Roxo is: 1:00 PM (Sunday). The local timezone is named \"Europe / Madrid\" with an UTC offset of 2 hours. Depending on", "model": "opt", "model_size": "13b", "p_type": "0", "p_length": "zero-shot"}, {"Country": "br", "City": "belo horizonte", "AccentCity": "Belo Horizonte", "Region": 15, "Population": 2373255.0, "Latitude": -19.916667, "Longitude": -43.933333000000005, "output": ":\n\nLatitude: -23.5\n\nLongitude: -55.5\n\nThe timezone of Belo Horizonte is: GMT-3\n\nThe current local time in Belo Horizonte is: 1:00 pm\n\nThe current date and time in Bel", "full_output": "The geo-coordinates of Belo Horizonte are:\n\nLatitude: -23.5\n\nLongitude: -55.5\n\nThe timezone of Belo Horizonte is: GMT-3\n\nThe current local time in Belo Horizonte is: 1:00 pm\n\nThe current date and time in Bel", "model": "opt", "model_size": "13b", "p_type": "0", "p_length": "zero-shot"}, {"Country": "br", "City": "betim", "AccentCity": "Betim", "Region": 15, "Population": 384038.0, "Latitude": -19.966667, "Longitude": -44.216667, "output": ":\n\nLatitude: -3.8\n\nLongitude: 50.8\n\nThe current local time in Betim is:\n\nWednesday, December 12, 2018, 12:00 am\n\nBetim weather forecast\n\nToday\n\n12\u00b0C\n\nTomorrow\n", "full_output": "The geo-coordinates of Betim are:\n\nLatitude: -3.8\n\nLongitude: 50.8\n\nThe current local time in Betim is:\n\nWednesday, December 12, 2018, 12:00 am\n\nBetim weather forecast\n\nToday\n\n12\u00b0C\n\nTomorrow\n", "model": "opt", "model_size": "13b", "p_type": "0", "p_length": "zero-shot"},