[{"Country": "ae", "City": "abu dhabi", "AccentCity": "Abu Dhabi", "Region": 1.0, "Population": 603687.0, "Latitude": 24.466667, "Longitude": 54.36666700000001, "output": ":                                                           ", "full_output": "The geo-coordinates of Abu Dhabi are:                                                           ", "model": "opt", "model_size": "6.7b", "p_type": "0", "p_length": "zero-shot"}, {"Country": "ae", "City": "dubai", "AccentCity": "Dubai", "Region": 3.0, "Population": 1137376.0, "Latitude": 25.258172, "Longitude": 55.304717, "output": " in the United Arab Emirates (UAE). Dubai is a city in the United Arab Emirates (UAE). Dubai is a city in the United Arab Emirates (UAE). Dubai is a city in the United Arab Emirates (UAE). Dubai is a city in the United Arab Emirates (UAE", "full_output": "The geo-coordinates of Dubai are in the United Arab Emirates (UAE). Dubai is a city in the United Arab Emirates (UAE). Dubai is a city in the United Arab Emirates (UAE). Dubai is a city in the United Arab Emirates (UAE). Dubai is a city in the United Arab Emirates (UAE", "model": "opt", "model_size": "6.7b", "p_type": "0", "p_length": "zero-shot"}, {"Country": "ae", "City": "sharjah", "AccentCity": "Sharjah", "Region": 6.0, "Population": 543942.0, "Latitude": 25.35731, "Longitude": 55.403304000000006, "output": ": Latitude: 33.867 and Longitude: 57.867.\n\nAbout Sharjah\n\nSharjah is one of the seven emirates that make up the United Arab Emirates (UAE). It is the second largest emirate in the UAE in terms of area", "full_output": "The geo-coordinates of Sharjah are: Latitude: 33.867 and Longitude: 57.867.\n\nAbout Sharjah\n\nSharjah is one of the seven emirates that make up the United Arab Emirates (UAE). It is the second largest emirate in the UAE in terms of area", "model": "opt", "model_size": "6.7b", "p_type": "0", "p_length": "zero-shot"}, {"Country": "af", "City": "baglan", "AccentCity": "Baglan", "Region": 3.0, "Population": 108481.0, "Latitude": 36.130684, "Longitude": 68.708286, "output": ":\nLatitude: 26.867\nLongitude: -74.867\n\nBaglan is located in the state of West Bengal in India.\n\nBaglan is located in the state of West Bengal in India.\n\nBaglan is located in the state", "full_output": "The geo-coordinates of Baglan are:\nLatitude: 26.867\nLongitude: -74.867\n\nBaglan is located in the state of West Bengal in India.\n\nBaglan is located in the state of West Bengal in India.\n\nBaglan is located in the state", "model": "opt", "model_size": "6.7b", "p_type": "0", "p_length": "zero-shot"}, {"Country": "af", "City": "gardez", "AccentCity": "Gardez", "Region": 36.0, "Population": 103732.0, "Latitude": 33.597439, "Longitude": 69.225922, "output": " in the north-west of Afghanistan.\n\nGardez is the capital of Paktia province.\n\nGardez is the capital of Paktia province.\n\nGardez is the capital of Paktia province.\n\nGardez is the capital of Pak", "full_output": "The geo-coordinates of Gardez are in the north-west of Afghanistan.\n\nGardez is the capital of Paktia province.\n\nGardez is the capital of Paktia province.\n\nGardez is the capital of Paktia province.\n\nGardez is the capital of Pak", "model": "opt", "model_size": "6.7b", "p_type": "0", "p_length": "zero-shot"}, {"Country": "af", "City": "gazni", "AccentCity": "Gazni", "Region": 8.0, "Population": 143049.0, "Latitude": 33.550833000000004, "Longitude": 68.4225, "output": " as follows:\nLatitude: 30.0\nLongitude: 60.0\n\nGazni is located at the latitude of 30.0 and the longitude of 60.0 in India.\n\nGazni Weather\n\nGazni has a tropical monsoon climate (", "full_output": "The geo-coordinates of Gazni are as follows:\nLatitude: 30.0\nLongitude: 60.0\n\nGazni is located at the latitude of 30.0 and the longitude of 60.0 in India.\n\nGazni Weather\n\nGazni has a tropical monsoon climate (", "model": "opt", "model_size": "6.7b", "p_type": "0", "p_length": "zero-shot"}, {"Country": "af", "City": "herat", "AccentCity": "Herat", "Region": 11.0, "Population": 272880.0, "Latitude": 34.348167, "Longitude": 62.199673, "output": " in Afghanistan, not Iran.                                                      ", "full_output": "The geo-coordinates of Herat are in Afghanistan, not Iran.                                                      ", "model": "opt", "model_size": "6.7b", "p_type": "0", "p_length": "zero-shot"}, {"Country": "af", "City": "jalalabad", "AccentCity": "Jalalabad", "Region": 18.0, "Population": 200389.0, "Latitude": 34.426468, "Longitude": 70.45153, "output": ": Latitude: 34.5 and Longitude: 74.5.\n\nJalalabad is located at the latitude of 34.5 and the longitude of 74.5.\n\nJalalabad is located at the latitude of 34.5 and the longitude of 74", "full_output": "The geo-coordinates of Jalalabad are: Latitude: 34.5 and Longitude: 74.5.\n\nJalalabad is located at the latitude of 34.5 and the longitude of 74.5.\n\nJalalabad is located at the latitude of 34.5 and the longitude of 74", "model": "opt", "model_size": "6.7b", "p_type": "0", "p_length": "zero-shot"}, {"Country": "af", "City": "kabul", "AccentCity": "Kabul", "Region": 13.0, "Population": 3043589.0, "Latitude": 34.516667, "Longitude": 69.18333299999999, "output": " in the middle of the Indian Ocean.                                                    ", "full_output": "The geo-coordinates of Kabul are in the middle of the Indian Ocean.                                                    ", "model": "opt", "model_size": "6.7b", "p_type": "0", "p_length": "zero-shot"}, {"Country": "af", "City": "qandahar", "AccentCity": "Qandahar", "Region": 23.0, "Population": 391230.0, "Latitude": 31.613323, "Longitude": 65.710126, "output": " in Afghanistan, not Pakistan.                                                      ", "full_output": "The geo-coordinates of Qandahar are in Afghanistan, not Pakistan.                                                      ", "model": "opt", "model_size": "6.7b", "p_type": "0", "p_length": "zero-shot"}, {"Country": "af", "City": "qunduz", "AccentCity": "Qunduz", "Region": 24.0, "Population": 161943.0, "Latitude": 36.728955, "Longitude": 68.857001, "output": " in the following table:\n\nGeo-coordinates of Qunduz\n\nLatitude:\n\nLongitude:\n\nAltitude:\n\nPopulation of Qunduz\n\nThe total population of Qunduz is estimated to be around 1,000 people.\n\nPopulation", "full_output": "The geo-coordinates of Qunduz are in the following table:\n\nGeo-coordinates of Qunduz\n\nLatitude:\n\nLongitude:\n\nAltitude:\n\nPopulation of Qunduz\n\nThe total population of Qunduz is estimated to be around 1,000 people.\n\nPopulation", "model": "opt", "model_size": "6.7b", "p_type": "0", "p_length": "zero-shot"}, {"Country": "al", "City": "durres", "AccentCity": "Durr\u00ebs", "Region": 42.0, "Population": 122034.0, "Latitude": 41.3230556, "Longitude": 19.4413889, "output": ":\n\nLatitude:\n\nLongitude:\n\nDurr\u00ebs is the capital of Durr\u00ebs County, Albania. It is located in the south-eastern part of the country, on the shores of the Bay of Durr\u00ebs.\n\nDurr\u00eb", "full_output": "The geo-coordinates of Durr\u00ebs are:\n\nLatitude:\n\nLongitude:\n\nDurr\u00ebs is the capital of Durr\u00ebs County, Albania. It is located in the south-eastern part of the country, on the shores of the Bay of Durr\u00ebs.\n\nDurr\u00eb", "model": "opt", "model_size": "6.7b", "p_type": "0", "p_length": "zero-shot"}, {"Country": "al", "City": "elbasan", "AccentCity": "Elbasan", "Region": 43.0, "Population": 100903.0, "Latitude": 41.1125, "Longitude": 20.0822222, "output": ": Latitude: 40.83333, Longitude: 19.83333.\n\nElbasan is located in Albania, Europe.\n\nElbasan is located in Albania, Europe.\n\nElbasan is located in Albania, Europe.\n\nElbasan is located", "full_output": "The geo-coordinates of Elbasan are: Latitude: 40.83333, Longitude: 19.83333.\n\nElbasan is located in Albania, Europe.\n\nElbasan is located in Albania, Europe.\n\nElbasan is located in Albania, Europe.\n\nElbasan is located", "model": "opt", "model_size": "6.7b", "p_type": "0", "p_length": "zero-shot"}, {"Country": "al", "City": "tirana", "AccentCity": "Tirana", "Region": 50.0, "Population": 374801.0, "Latitude": 41.3275, "Longitude": 19.8188889, "output": " as follows:\nLatitude: 39.8\nLongitude: 21.8\n\nTirana is the capital city of Albania and the largest city in the country. It is located on the northern coast of the Adriatic Sea. Tirana is the second largest city in Albania after", "full_output": "The geo-coordinates of Tirana are as follows:\nLatitude: 39.8\nLongitude: 21.8\n\nTirana is the capital city of Albania and the largest city in the country. It is located on the northern coast of the Adriatic Sea. Tirana is the second largest city in Albania after", "model": "opt", "model_size": "6.7b", "p_type": "0", "p_length": "zero-shot"}, {"Country": "am", "City": "gyumri", "AccentCity": "Gyumri", "Region": 7.0, "Population": 148383.0, "Latitude": 40.7894444, "Longitude": 43.8475, "output": ": 44\u00b019'55.0\"N, 44\u00b019'55.0\"E (Latitude / Longitude: 44\u00b019'55.0\"N 44\u00b019'55.0\"E / 44\u00b019'55.0\"N 44\u00b019'55", "full_output": "The geo-coordinates of Gyumri are: 44\u00b019'55.0\"N, 44\u00b019'55.0\"E (Latitude / Longitude: 44\u00b019'55.0\"N 44\u00b019'55.0\"E / 44\u00b019'55.0\"N 44\u00b019'55", "model": "opt", "model_size": "6.7b", "p_type": "0", "p_length": "zero-shot"}, {"Country": "am", "City": "vanadzor", "AccentCity": "Vanadzor", "Region": 6.0, "Population": 101099.0, "Latitude": 40.8127778, "Longitude": 44.4883333, "output": " in the following table:\n\nGeo-coordinates of Vanadzor\n\nLatitude\n\nLongitude\n\n30\u00b0\n\n50\u00b0\n\nElevation in meters\n\n2\n\n2\n\nElevation in meters\n\n2\n\n2\n", "full_output": "The geo-coordinates of Vanadzor are in the following table:\n\nGeo-coordinates of Vanadzor\n\nLatitude\n\nLongitude\n\n30\u00b0\n\n50\u00b0\n\nElevation in meters\n\n2\n\n2\n\nElevation in meters\n\n2\n\n2\n", "model": "opt", "model_size": "6.7b", "p_type": "0", "p_length": "zero-shot"}, {"Country": "am", "City": "yerevan", "AccentCity": "Yerevan", "Region": 11.0, "Population": 1093499.0, "Latitude": 40.1811111, "Longitude": 44.513611100000006, "output": " in the middle of nowhere.                                                      ", "full_output": "The geo-coordinates of Yerevan are in the middle of nowhere.                                                      ", "model": "opt", "model_size": "6.7b", "p_type": "0", "p_length": "zero-shot"}, {"Country": "ao", "City": "benguela", "AccentCity": "Benguela", "Region": 1.0, "Population": 151235.0, "Latitude": -12.578333, "Longitude": 13.407222, "output": ":                                                           ", "full_output": "The geo-coordinates of Benguela are:                                                           ", "model": "opt", "model_size": "6.7b", "p_type": "0", "p_length": "zero-shot"}, {"Country": "ao", "City": "huambo", "AccentCity": "Huambo", "Region": 8.0, "Population": 226177.0, "Latitude": -12.776111, "Longitude": 15.739167000000002, "output": ":                                                           ", "full_output": "The geo-coordinates of Huambo are:                                                           ", "model": "opt", "model_size": "6.7b", "p_type": "0", "p_length": "zero-shot"}, {"Country": "ao", "City": "kuito", "AccentCity": "Kuito", "Region": 2.0, "Population": 113624.0, "Latitude": -12.383333, "Longitude": 16.933332999999998, "output": ":\n\nLatitude:\n\nLongitude:\n\nAltitude:\n\nPopulation:\n\nKuito is a small town in Kenya. The population of Kuito is estimated to be around 1,000 people.\n\nKuito is a small town in Kenya.", "full_output": "The geo-coordinates of Kuito are:\n\nLatitude:\n\nLongitude:\n\nAltitude:\n\nPopulation:\n\nKuito is a small town in Kenya. The population of Kuito is estimated to be around 1,000 people.\n\nKuito is a small town in Kenya.", "model": "opt", "model_size": "6.7b", "p_type": "0", "p_length": "zero-shot"}, {"Country": "ao", "City": "lobito", "AccentCity": "Lobito", "Region": 1.0, "Population": 207957.0, "Latitude": -12.319722, "Longitude": 13.599722, "output": ": Latitude: 18.867 and Longitude: -70.867.\n\nLobito is located at the latitude of 18.867 and the longitude of -70.867. To travel to Lobito from any point in the world, the straight line distance", "full_output": "The geo-coordinates of Lobito are: Latitude: 18.867 and Longitude: -70.867.\n\nLobito is located at the latitude of 18.867 and the longitude of -70.867. To travel to Lobito from any point in the world, the straight line distance", "model": "opt", "model_size": "6.7b", "p_type": "0", "p_length": "zero-shot"}, {"Country": "ao", "City": "luanda", "AccentCity": "Luanda", "Region": 20.0, "Population": 2776125.0, "Latitude": -8.836803999999999, "Longitude": 13.233173999999998, "output": ":                                                           ", "full_output": "The geo-coordinates of Luanda are:                                                           ", "model": "opt", "model_size": "6.7b", "p_type": "0", "p_length": "zero-shot"}, {"Country": "ao", "City": "lubango", "AccentCity": "Lubango", "Region": 9.0, "Population": 102541.0, "Latitude": -14.916667000000002, "Longitude": 13.5, "output": ":\n\nLatitude:\n\nLongitude:\n\nAltitude:\n\nPopulation:\n\nLubango is the capital and largest city of Angola. It is located in the province of Cuando Cubango, on the banks of the Cuando Cubango River. The city is", "full_output": "The geo-coordinates of Lubango are:\n\nLatitude:\n\nLongitude:\n\nAltitude:\n\nPopulation:\n\nLubango is the capital and largest city of Angola. It is located in the province of Cuando Cubango, on the banks of the Cuando Cubango River. The city is", "model": "opt", "model_size": "6.7b", "p_type": "0", "p_length": "zero-shot"}, {"Country": "ar", "City": "bahia blanca", "AccentCity": "Bahia Blanca", "Region": 1.0, "Population": 282950.0, "Latitude": -38.719595, "Longitude": -62.272432, "output": ":\n\nLatitude:\n\nLongitude:\n\nThe time zone of Bahia Blanca is:\n\nTime in Bahia Blanca is:\n\nBahia Blanca Weather\n\nThe average temperature in Bahia Blanca is:\n\nThe average temperature in Bahia", "full_output": "The geo-coordinates of Bahia Blanca are:\n\nLatitude:\n\nLongitude:\n\nThe time zone of Bahia Blanca is:\n\nTime in Bahia Blanca is:\n\nBahia Blanca Weather\n\nThe average temperature in Bahia Blanca is:\n\nThe average temperature in Bahia", "model": "opt", "model_size": "6.7b", "p_type": "0", "p_length": "zero-shot"}, {"Country": "ar", "City": "catamarca", "AccentCity": "Catamarca", "Region": 2.0, "Population": 213601.0, "Latitude": -28.469574, "Longitude": -65.785239, "output": ": Latitude: -33.867 and Longitude: -73.867.\n\nCatamarca is located in Argentina.\n\nCatamarca is located in the province of Catamarca.\n\nCatamarca is located in the country of Argentina", "full_output": "The geo-coordinates of Catamarca are: Latitude: -33.867 and Longitude: -73.867.\n\nCatamarca is located in Argentina.\n\nCatamarca is located in the province of Catamarca.\n\nCatamarca is located in the country of Argentina", "model": "opt", "model_size": "6.7b", "p_type": "0", "p_length": "zero-shot"}, {"Country": "ar", "City": "comodoro rivadavia", "AccentCity": "Comodoro Rivadavia", "Region": 7.0, "Population": 142597.0, "Latitude": -45.864135, "Longitude": -67.496558, "output": ": -33.86767\u00b0S, 56.86767\u00b0W.\n\nComodoro Rivadavia is located in the province of Chubut, Argentina.\n\nComodoro Rivadavia is located in the province of Chubut, Argentina.\n\n", "full_output": "The geo-coordinates of Comodoro Rivadavia are: -33.86767\u00b0S, 56.86767\u00b0W.\n\nComodoro Rivadavia is located in the province of Chubut, Argentina.\n\nComodoro Rivadavia is located in the province of Chubut, Argentina.\n\n", "model": "opt", "model_size": "6.7b", "p_type": "0", "p_length": "zero-shot"}, {"Country": "ar", "City": "concordia", "AccentCity": "Concordia", "Region": 8.0, "Population": 155686.0, "Latitude": -31.392959, "Longitude": -58.02089, "output": " as follows:\n\nLatitude: 40.955\n\nLongitude: -90.955\n\nThe city is located in the state of New Hampshire, in the United States of America.\n\nConcordia is located at latitude 40.955 and longitude -", "full_output": "The geo-coordinates of Concordia are as follows:\n\nLatitude: 40.955\n\nLongitude: -90.955\n\nThe city is located in the state of New Hampshire, in the United States of America.\n\nConcordia is located at latitude 40.955 and longitude -", "model": "opt", "model_size": "6.7b", "p_type": "0", "p_length": "zero-shot"}, {"Country": "ar", "City": "cordoba", "AccentCity": "Cordoba", "Region": 5.0, "Population": 1441007.0, "Latitude": -31.413496, "Longitude": -64.18105200000001, "output": ": Latitude: 35.867 and Longitude: -2.867.\n\nCordoba is the capital city of the province of C\u00f3rdoba, Argentina. It is located in the province of C\u00f3rdoba, Argentina.\n\nCordoba is the capital", "full_output": "The geo-coordinates of Cordoba are: Latitude: 35.867 and Longitude: -2.867.\n\nCordoba is the capital city of the province of C\u00f3rdoba, Argentina. It is located in the province of C\u00f3rdoba, Argentina.\n\nCordoba is the capital", "model": "opt", "model_size": "6.7b", "p_type": "0", "p_length": "zero-shot"}, {"Country": "ar", "City": "corrientes", "AccentCity": "Corrientes", "Region": 6.0, "Population": 390481.0, "Latitude": -27.480596, "Longitude": -58.834099, "output": ": Latitude -33.867 and Longitude -73.867.\n\nCorrientes is a city in the province of Buenos Aires, Argentina. It is the capital of the Corrientes Province.\n\nCorrientes is a city in the province of Buenos Aires,", "full_output": "The geo-coordinates of Corrientes are: Latitude -33.867 and Longitude -73.867.\n\nCorrientes is a city in the province of Buenos Aires, Argentina. It is the capital of the Corrientes Province.\n\nCorrientes is a city in the province of Buenos Aires,", "model": "opt", "model_size": "6.7b", "p_type": "0", "p_length": "zero-shot"}, {"Country": "ar", "City": "formosa", "AccentCity": "Formosa", "Region": 9.0, "Population": 248756.0, "Latitude": -26.177534, "Longitude": -58.178139, "output": ":\n\nLatitude:\n\nLongitude:\n\nArea:\n\nPopulation:\n\nArea:\n\nPopulation:\n\nArea:\n\nPopulation:\n\nArea:\n\nPopulation:\n\nArea:\n\nPopulation:\n\nArea:\n\nPopulation:\n", "full_output": "The geo-coordinates of Formosa are:\n\nLatitude:\n\nLongitude:\n\nArea:\n\nPopulation:\n\nArea:\n\nPopulation:\n\nArea:\n\nPopulation:\n\nArea:\n\nPopulation:\n\nArea:\n\nPopulation:\n\nArea:\n\nPopulation:\n", "model": "opt", "model_size": "6.7b", "p_type": "0", "p_length": "zero-shot"}, {"Country": "ar", "City": "jujuy", "AccentCity": "Jujuy", "Region": "10", "Population": 277150.0, "Latitude": -24.194565, "Longitude": -65.297116, "output": ": Latitude: 40.867 and Longitude: -55.867.\n\nJujuy is located at the latitude of 40.867 and the longitude of -55.867 in Argentina.\n\nJujuy is located at the latitude of 40.8", "full_output": "The geo-coordinates of Jujuy are: Latitude: 40.867 and Longitude: -55.867.\n\nJujuy is located at the latitude of 40.867 and the longitude of -55.867 in Argentina.\n\nJujuy is located at the latitude of 40.8", "model": "opt", "model_size": "6.7b", "p_type": "0", "p_length": "zero-shot"}, {"Country": "ar", "City": "la plata", "AccentCity": "La Plata", "Region": "01", "Population": 684318.0, "Latitude": -34.921454, "Longitude": -57.954533, "output": ": Latitude: -33.867 and Longitude: -70.867.\n\nLa Plata is located at the latitude of -33.867 and the longitude of -70.867 in the United States of America. La Plata can be found at the", "full_output": "The geo-coordinates of La Plata are: Latitude: -33.867 and Longitude: -70.867.\n\nLa Plata is located at the latitude of -33.867 and the longitude of -70.867 in the United States of America. La Plata can be found at the", "model": "opt", "model_size": "6.7b", "p_type": "0", "p_length": "zero-shot"}, {"Country": "ar", "City": "la rioja", "AccentCity": "La Rioja", "Region": "12", "Population": 178497.0, "Latitude": -29.411048, "Longitude": -66.850668, "output": ": Latitude: 42.5\u00b0, Longitude: -3.5\u00b0.\n\nLa Rioja is a province in the autonomous community of Castile and Le\u00f3n, Spain. It is located in the northern part of the autonomous community, in the region of La Rioja Alaves", "full_output": "The geo-coordinates of La Rioja are: Latitude: 42.5\u00b0, Longitude: -3.5\u00b0.\n\nLa Rioja is a province in the autonomous community of Castile and Le\u00f3n, Spain. It is located in the northern part of the autonomous community, in the region of La Rioja Alaves", "model": "opt", "model_size": "6.7b", "p_type": "0", "p_length": "zero-shot"}, {"Country": "ar", "City": "mar del plata", "AccentCity": "Mar del Plata", "Region": "01", "Population": 645771.0, "Latitude": -38.002278, "Longitude": -57.557539, "output": ": -28.867, 55.867.\n\nMar del Plata is located in the province of Buenos Aires, Argentina.\n\nMar del Plata is located in the province of Buenos Aires, Argentina.\n\nMar del Plata is located in the province of Buenos Aires", "full_output": "The geo-coordinates of Mar del Plata are: -28.867, 55.867.\n\nMar del Plata is located in the province of Buenos Aires, Argentina.\n\nMar del Plata is located in the province of Buenos Aires, Argentina.\n\nMar del Plata is located in the province of Buenos Aires", "model": "opt", "model_size": "6.7b", "p_type": "0", "p_length": "zero-shot"}, {"Country": "ar", "City": "mendoza", "AccentCity": "Mendoza", "Region": "13", "Population": 973047.0, "Latitude": -32.890845, "Longitude": -68.82717099999999, "output": " 37.5\u00b0S, 54.5\u00b0W.\n\nMendoza is the capital and largest city of the province of Mendoza, Argentina. It is located in the foothills of the Andes, at the foot of the Andes mountain range. Mendoza is the", "full_output": "The geo-coordinates of Mendoza are 37.5\u00b0S, 54.5\u00b0W.\n\nMendoza is the capital and largest city of the province of Mendoza, Argentina. It is located in the foothills of the Andes, at the foot of the Andes mountain range. Mendoza is the", "model": "opt", "model_size": "6.7b", "p_type": "0", "p_length": "zero-shot"}, {"Country": "ar", "City": "mercedes", "AccentCity": "Mercedes", "Region": "19", "Population": 126559.0, "Latitude": -33.674359, "Longitude": -65.461405, "output": " as follows:\n\nMercedes is located in the state of Maharashtra, India.\n\nMercedes is located in the district of Thane, Maharashtra, India.\n\nMercedes is located in the city of Thane, Maharashtra, India.\n\nMercedes is located in the country", "full_output": "The geo-coordinates of Mercedes are as follows:\n\nMercedes is located in the state of Maharashtra, India.\n\nMercedes is located in the district of Thane, Maharashtra, India.\n\nMercedes is located in the city of Thane, Maharashtra, India.\n\nMercedes is located in the country", "model": "opt", "model_size": "6.7b", "p_type": "0", "p_length": "zero-shot"}, {"Country": "ar", "City": "neuquen", "AccentCity": "Neuquen", "Region": "15", "Population": 359037.0, "Latitude": -38.951606, "Longitude": -68.059102, "output": ":                                                           ", "full_output": "The geo-coordinates of Neuquen are:                                                           ", "model": "opt", "model_size": "6.7b", "p_type": "0", "p_length": "zero-shot"}, {"Country": "ar", "City": "parana", "AccentCity": "Parana", "Region": "08", "Population": 299257.0, "Latitude": -31.731967, "Longitude": -60.523802, "output": " given below:\n\nParana is located in the state of Goa, India.\n\nParana is located in the state of Goa, India.\n\nParana is located in the state of Goa, India.\n\nParana is located in the state of Goa", "full_output": "The geo-coordinates of Parana are given below:\n\nParana is located in the state of Goa, India.\n\nParana is located in the state of Goa, India.\n\nParana is located in the state of Goa, India.\n\nParana is located in the state of Goa", "model": "opt", "model_size": "6.7b", "p_type": "0", "p_length": "zero-shot"}, {"Country": "ar", "City": "posadas", "AccentCity": "Posadas", "Region": "14", "Population": 313438.0, "Latitude": -27.367077, "Longitude": -55.896078, "output": " as follows:\n\nLatitude:\n\nLongitude:\n\nLatitude:\n\nLongitude:\n\nLatitude:\n\nLongitude:\n\nLatitude:\n\nLongitude:\n\nLatitude:\n\nLongitude:\n\nLatitude:\n\n", "full_output": "The geo-coordinates of Posadas are as follows:\n\nLatitude:\n\nLongitude:\n\nLatitude:\n\nLongitude:\n\nLatitude:\n\nLongitude:\n\nLatitude:\n\nLongitude:\n\nLatitude:\n\nLongitude:\n\nLatitude:\n\n", "model": "opt", "model_size": "6.7b", "p_type": "0", "p_length": "zero-shot"}, {"Country": "ar", "City": "resistencia", "AccentCity": "Resistencia", "Region": "03", "Population": 406967.0, "Latitude": -27.46056, "Longitude": -58.983886, "output": ": Latitude: 28.867 and Longitude: -99.867.\n\nResistencia is located in the state of Chihuahua, Mexico.\n\nResistencia is located in the state of Chihuahua, Mexico.\n\nResistencia is", "full_output": "The geo-coordinates of Resistencia are: Latitude: 28.867 and Longitude: -99.867.\n\nResistencia is located in the state of Chihuahua, Mexico.\n\nResistencia is located in the state of Chihuahua, Mexico.\n\nResistencia is", "model": "opt", "model_size": "6.7b", "p_type": "0", "p_length": "zero-shot"}, {"Country": "ar", "City": "rio cuarto", "AccentCity": "Rio Cuarto", "Region": "05", "Population": 174058.0, "Latitude": -33.130671, "Longitude": -64.349918, "output": ": Latitude: 34.867 and Longitude: -98.867.\n\nRio Cuarto is located at the latitude of 34.867 and the longitude of -98.867.\n\nRio Cuarto Weather\n\nRio Cuart", "full_output": "The geo-coordinates of Rio Cuarto are: Latitude: 34.867 and Longitude: -98.867.\n\nRio Cuarto is located at the latitude of 34.867 and the longitude of -98.867.\n\nRio Cuarto Weather\n\nRio Cuart", "model": "opt", "model_size": "6.7b", "p_type": "0", "p_length": "zero-shot"}, {"Country": "ar", "City": "rosario", "AccentCity": "Rosario", "Region": "21", "Population": 1218497.0, "Latitude": -32.946818, "Longitude": -60.639317000000005, "output": " 34.5\u00b0 N, 70.5\u00b0 W.\n\nRosario is a city in the province of Santa Fe, Argentina. It is the capital of the Rosario Department and the Rosario Province. It is located on the banks of the Paran\u00e1 River, at the confluence of", "full_output": "The geo-coordinates of Rosario are 34.5\u00b0 N, 70.5\u00b0 W.\n\nRosario is a city in the province of Santa Fe, Argentina. It is the capital of the Rosario Department and the Rosario Province. It is located on the banks of the Paran\u00e1 River, at the confluence of", "model": "opt", "model_size": "6.7b", "p_type": "0", "p_length": "zero-shot"}, {"Country": "ar", "City": "salta", "AccentCity": "Salta", "Region": "17", "Population": 548288.0, "Latitude": -24.785896, "Longitude": -65.411664, "output": ": Latitude -33.5 and Longitude -73.5.\n\nSalta is the capital city of Salta Province in Argentina. It is located in the northwest of the province, on the banks of the Salado River.\n\nSalta is the second largest city in the", "full_output": "The geo-coordinates of Salta are: Latitude -33.5 and Longitude -73.5.\n\nSalta is the capital city of Salta Province in Argentina. It is located in the northwest of the province, on the banks of the Salado River.\n\nSalta is the second largest city in the", "model": "opt", "model_size": "6.7b", "p_type": "0", "p_length": "zero-shot"}, {"Country": "ar", "City": "san carlos de bariloche", "AccentCity": "San Carlos de Bariloche", "Region": "16", "Population": 110044.0, "Latitude": -41.140293, "Longitude": -71.301369, "output": ": latitude: 42.867 and longitude: -70.867. The time zone of San Carlos de Bariloche is America/Buenos_Aires and the current local time of San Carlos de Bariloche is 01:00:00.\n\nSan Carlos de Bar", "full_output": "The geo-coordinates of San Carlos de Bariloche are: latitude: 42.867 and longitude: -70.867. The time zone of San Carlos de Bariloche is America/Buenos_Aires and the current local time of San Carlos de Bariloche is 01:00:00.\n\nSan Carlos de Bar", "model": "opt", "model_size": "6.7b", "p_type": "0", "p_length": "zero-shot"}, {"Country": "ar", "City": "san juan", "AccentCity": "San Juan", "Region": "18", "Population": 469958.0, "Latitude": -31.5375, "Longitude": -68.536389, "output": ":  Latitude:                                                       ", "full_output": "The geo-coordinates of San Juan are:  Latitude:                                                       ", "model": "opt", "model_size": "6.7b", "p_type": "0", "p_length": "zero-shot"}, {"Country": "ar", "City": "san luis", "AccentCity": "San Luis", "Region": "19", "Population": 184869.0, "Latitude": -33.295012, "Longitude": -66.335627, "output": ": Latitude: 32.867 and Longitude: -99.867.\n\nSan Luis is located at the latitude of 32.867 and the longitude of -99.867 in the United States of America.\n\nSan Luis Weather\n\nThe average temperature in", "full_output": "The geo-coordinates of San Luis are: Latitude: 32.867 and Longitude: -99.867.\n\nSan Luis is located at the latitude of 32.867 and the longitude of -99.867 in the United States of America.\n\nSan Luis Weather\n\nThe average temperature in", "model": "opt", "model_size": "6.7b", "p_type": "0", "p_length": "zero-shot"}, {"Country": "ar", "City": "san martin", "AccentCity": "San Martin", "Region": "13", "Population": 107554.0, "Latitude": -33.081031, "Longitude": -68.468138, "output": ": Latitude: 28.867 and Longitude: -92.867.\n\nSan Martin is located in the state of California, in the United States of America.\n\nSan Martin is located in the county of Santa Clara.\n\nSan Martin is located in the zip code", "full_output": "The geo-coordinates of San Martin are: Latitude: 28.867 and Longitude: -92.867.\n\nSan Martin is located in the state of California, in the United States of America.\n\nSan Martin is located in the county of Santa Clara.\n\nSan Martin is located in the zip code", "model": "opt", "model_size": "6.7b", "p_type": "0", "p_length": "zero-shot"}, {"Country": "ar", "City": "san nicolas", "AccentCity": "San Nicolas", "Region": "01", "Population": 130705.0, "Latitude": -33.335784000000004, "Longitude": -60.225233, "output": ":\nLatitude: 18.09955\nLongitude: -122.816\n\nSan Nicolas is located in the state of California, in the United States.\nSan Nicolas is located in the county of Santa Barbara.\nSan Nicolas is located in the zip code of 931", "full_output": "The geo-coordinates of San Nicolas are:\nLatitude: 18.09955\nLongitude: -122.816\n\nSan Nicolas is located in the state of California, in the United States.\nSan Nicolas is located in the county of Santa Barbara.\nSan Nicolas is located in the zip code of 931", "model": "opt", "model_size": "6.7b", "p_type": "0", "p_length": "zero-shot"}, {"Country": "ar", "City": "san rafael", "AccentCity": "San Rafael", "Region": "13", "Population": 125033.0, "Latitude": -34.617717, "Longitude": -68.330066, "output": ": Latitude: 40.8 and Longitude: -122.5.\n\nSan Rafael is located at the latitude of 40.8 and the longitude of -122.5. In the North American continent, the latitude of 40.8 and the longitude of -122.5", "full_output": "The geo-coordinates of San Rafael are: Latitude: 40.8 and Longitude: -122.5.\n\nSan Rafael is located at the latitude of 40.8 and the longitude of -122.5. In the North American continent, the latitude of 40.8 and the longitude of -122.5", "model": "opt", "model_size": "6.7b", "p_type": "0", "p_length": "zero-shot"}, {"Country": "ar", "City": "santa fe", "AccentCity": "Santa Fe", "Region": "21", "Population": 456044.0, "Latitude": -31.629484, "Longitude": -60.701036, "output": ":                                                           ", "full_output": "The geo-coordinates of Santa Fe are:                                                           ", "model": "opt", "model_size": "6.7b", "p_type": "0", "p_length": "zero-shot"}, {"Country": "ar", "City": "santiago del estero", "AccentCity": "Santiago del Estero", "Region": "22", "Population": 407636.0, "Latitude": -27.795112, "Longitude": -64.261489, "output": ": Latitude: -29.867 and Longitude: -79.867.\n\nSantiago del Estero is located in Argentina.\n\nSantiago del Estero is located in the province of Santiago del Estero.\n\nSantiago del", "full_output": "The geo-coordinates of Santiago del Estero are: Latitude: -29.867 and Longitude: -79.867.\n\nSantiago del Estero is located in Argentina.\n\nSantiago del Estero is located in the province of Santiago del Estero.\n\nSantiago del", "model": "opt", "model_size": "6.7b", "p_type": "0", "p_length": "zero-shot"}, {"Country": "ar", "City": "tandil", "AccentCity": "Tandil", "Region": "01", "Population": 100127.0, "Latitude": -37.321674, "Longitude": -59.133164, "output": ": Latitude: -28.867 and Longitude: -73.867.\nTandil is located at the longitude of -73.867 and latitude of -28.867.\n\nTandil is located at the longitude of -73.8", "full_output": "The geo-coordinates of Tandil are: Latitude: -28.867 and Longitude: -73.867.\nTandil is located at the longitude of -73.867 and latitude of -28.867.\n\nTandil is located at the longitude of -73.8", "model": "opt", "model_size": "6.7b", "p_type": "0", "p_length": "zero-shot"}, {"Country": "ar", "City": "trelew", "AccentCity": "Trelew", "Region": "04", "Population": 107883.0, "Latitude": -43.250075, "Longitude": -65.313295, "output": " given below:\n\nTrelew is located in the state of Gujarat, India.\n\nTrelew is located in the state of Gujarat, India.\n\nTrelew is located in the state of Gujarat, India.\n\nTrelew is located in the state of Gujarat", "full_output": "The geo-coordinates of Trelew are given below:\n\nTrelew is located in the state of Gujarat, India.\n\nTrelew is located in the state of Gujarat, India.\n\nTrelew is located in the state of Gujarat, India.\n\nTrelew is located in the state of Gujarat", "model": "opt", "model_size": "6.7b", "p_type": "0", "p_length": "zero-shot"}, {"Country": "ar", "City": "tucuman", "AccentCity": "Tucuman", "Region": "24", "Population": 828402.0, "Latitude": -26.824144, "Longitude": -65.2226, "output": ": Latitude -33.7 and Longitude -70.8.\n\nTucuman is located in Argentina.\n\nTucuman is located in the province of Tucuman.\n\nTucuman is located in the country of Argentina.\n\nTucuman is located in", "full_output": "The geo-coordinates of Tucuman are: Latitude -33.7 and Longitude -70.8.\n\nTucuman is located in Argentina.\n\nTucuman is located in the province of Tucuman.\n\nTucuman is located in the country of Argentina.\n\nTucuman is located in", "model": "opt", "model_size": "6.7b", "p_type": "0", "p_length": "zero-shot"}, {"Country": "at", "City": "graz", "AccentCity": "Graz", "Region": "06", "Population": 222326.0, "Latitude": 47.066667, "Longitude": 15.45, "output": " as follows:\n\nLatitude:\n\nLongitude:\n\nGraz is the capital and largest city of the Austrian state of Styria. It is located in the eastern part of the state, on the banks of the Danube River. The city is the seat of the Styrian", "full_output": "The geo-coordinates of Graz are as follows:\n\nLatitude:\n\nLongitude:\n\nGraz is the capital and largest city of the Austrian state of Styria. It is located in the eastern part of the state, on the banks of the Danube River. The city is the seat of the Styrian", "model": "opt", "model_size": "6.7b", "p_type": "0", "p_length": "zero-shot"}, {"Country": "at", "City": "innsbruck", "AccentCity": "Innsbruck", "Region": "07", "Population": 112467.0, "Latitude": 47.266667, "Longitude": 11.4, "output": ":                                                           ", "full_output": "The geo-coordinates of Innsbruck are:                                                           ", "model": "opt", "model_size": "6.7b", "p_type": "0", "p_length": "zero-shot"}, {"Country": "at", "City": "linz", "AccentCity": "Linz", "Region": "04", "Population": 181163.0, "Latitude": 48.3, "Longitude": 14.3, "output": " as follows:\nLatitude: 42.5\u00b0 N\nLongitude: 11.5\u00b0 E\n\nLinz is the capital and largest city of the Austrian state of Upper Austria. It is located on the Danube River, at the confluence of the Danube and Inn rivers.", "full_output": "The geo-coordinates of Linz are as follows:\nLatitude: 42.5\u00b0 N\nLongitude: 11.5\u00b0 E\n\nLinz is the capital and largest city of the Austrian state of Upper Austria. It is located on the Danube River, at the confluence of the Danube and Inn rivers.", "model": "opt", "model_size": "6.7b", "p_type": "0", "p_length": "zero-shot"}, {"Country": "at", "City": "salzburg", "AccentCity": "Salzburg", "Region": "05", "Population": 145310.0, "Latitude": 47.8, "Longitude": 13.033333, "output": ":                                                           ", "full_output": "The geo-coordinates of Salzburg are:                                                           ", "model": "opt", "model_size": "6.7b", "p_type": "0", "p_length": "zero-shot"}, {"Country": "at", "City": "vienna", "AccentCity": "Vienna", "Region": "09", "Population": 1569315.0, "Latitude": 48.2, "Longitude": 16.366667, "output": ":                                                           ", "full_output": "The geo-coordinates of Vienna are:                                                           ", "model": "opt", "model_size": "6.7b", "p_type": "0", "p_length": "zero-shot"}, {"Country": "au", "City": "adelaide", "AccentCity": "Adelaide", "Region": "05", "Population": 1074168.0, "Latitude": -34.928661, "Longitude": 138.598633, "output": ":                                                           ", "full_output": "The geo-coordinates of Adelaide are:                                                           ", "model": "opt", "model_size": "6.7b", "p_type": "0", "p_length": "zero-shot"}, {"Country": "au", "City": "albury", "AccentCity": "Albury", "Region": "02", "Population": 104261.0, "Latitude": -36.074940000000005, "Longitude": 146.923935, "output": ": Latitude - 32.8 and Longitude - 118.5.\n\nAlbury is located in the state of New South Wales, Australia.\n\nAlbury is located in the state of New South Wales, Australia.\n\nAlbury is located in the state of New South Wales", "full_output": "The geo-coordinates of Albury are: Latitude - 32.8 and Longitude - 118.5.\n\nAlbury is located in the state of New South Wales, Australia.\n\nAlbury is located in the state of New South Wales, Australia.\n\nAlbury is located in the state of New South Wales", "model": "opt", "model_size": "6.7b", "p_type": "0", "p_length": "zero-shot"}, {"Country": "au", "City": "brisbane", "AccentCity": "Brisbane", "Region": "04", "Population": 1843459.0, "Latitude": -27.47101, "Longitude": 153.024292, "output": ":                                                           ", "full_output": "The geo-coordinates of Brisbane are:                                                           ", "model": "opt", "model_size": "6.7b", "p_type": "0", "p_length": "zero-shot"}, {"Country": "au", "City": "cairns", "AccentCity": "Cairns", "Region": "04", "Population": 154318.0, "Latitude": -16.92304, "Longitude": 145.766251, "output": ":\n\nLatitude: -18.8\n\nLongitude: 151.8\n\nCairns is located in the state of Queensland, Australia.\n\nCairns is located in the Far North Region of Queensland, Australia.\n\nCairns is located in the Far", "full_output": "The geo-coordinates of Cairns are:\n\nLatitude: -18.8\n\nLongitude: 151.8\n\nCairns is located in the state of Queensland, Australia.\n\nCairns is located in the Far North Region of Queensland, Australia.\n\nCairns is located in the Far", "model": "opt", "model_size": "6.7b", "p_type": "0", "p_length": "zero-shot"}, {"Country": "au", "City": "canberra", "AccentCity": "Canberra", "Region": "01", "Population": 324025.0, "Latitude": -35.27603, "Longitude": 149.13435, "output": ":                                                           ", "full_output": "The geo-coordinates of Canberra are:                                                           ", "model": "opt", "model_size": "6.7b", "p_type": "0", "p_length": "zero-shot"}, {"Country": "au", "City": "geelong", "AccentCity": "Geelong", "Region": "07", "Population": 150438.0, "Latitude": -38.153461, "Longitude": 144.358093, "output": ":\nLatitude - 32.8\nLongitude - 118.8\n\nGeelong is located in the state of Victoria, Australia.\nGeelong has a land area of 0.00 km2 and a water area of 0.00 km2.\n\nThe population of Geelong", "full_output": "The geo-coordinates of Geelong are:\nLatitude - 32.8\nLongitude - 118.8\n\nGeelong is located in the state of Victoria, Australia.\nGeelong has a land area of 0.00 km2 and a water area of 0.00 km2.\n\nThe population of Geelong", "model": "opt", "model_size": "6.7b", "p_type": "0", "p_length": "zero-shot"}, {"Country": "au", "City": "gold coast", "AccentCity": "Gold Coast", "Region": "04", "Population": 501175.0, "Latitude": -28.000290000000003, "Longitude": 153.430878, "output": ":\nLatitude: 35.83333,\nLongitude: -2.83333.\nThe time zone of Gold Coast is Asia/Gold Coast (Asia/Gold Coast).\nGold Coast is located in Australia.\nGold Coast is in the time zone Asia/Gold Coast (Asia", "full_output": "The geo-coordinates of Gold Coast are:\nLatitude: 35.83333,\nLongitude: -2.83333.\nThe time zone of Gold Coast is Asia/Gold Coast (Asia/Gold Coast).\nGold Coast is located in Australia.\nGold Coast is in the time zone Asia/Gold Coast (Asia", "model": "opt", "model_size": "6.7b", "p_type": "0", "p_length": "zero-shot"}, {"Country": "au", "City": "hobart", "AccentCity": "Hobart", "Region": "06", "Population": 204863.0, "Latitude": -42.883209, "Longitude": 147.331665, "output": ":                                                           ", "full_output": "The geo-coordinates of Hobart are:                                                           ", "model": "opt", "model_size": "6.7b", "p_type": "0", "p_length": "zero-shot"}, {"Country": "au", "City": "melbourne", "AccentCity": "Melbourne", "Region": "07", "Population": 3730212.0, "Latitude": -37.813938, "Longitude": 144.963425, "output": ":                                                           ", "full_output": "The geo-coordinates of Melbourne are:                                                           ", "model": "opt", "model_size": "6.7b", "p_type": "0", "p_length": "zero-shot"}, {"Country": "au", "City": "newcastle", "AccentCity": "Newcastle", "Region": "02", "Population": 497961.0, "Latitude": -32.927792, "Longitude": 151.78448500000002, "output": ":                                                           ", "full_output": "The geo-coordinates of Newcastle are:                                                           ", "model": "opt", "model_size": "6.7b", "p_type": "0", "p_length": "zero-shot"}, {"Country": "au", "City": "perth", "AccentCity": "Perth", "Region": "08", "Population": 1446715.0, "Latitude": -31.952240000000003, "Longitude": 115.861397, "output": ":                                                           ", "full_output": "The geo-coordinates of Perth are:                                                           ", "model": "opt", "model_size": "6.7b", "p_type": "0", "p_length": "zero-shot"}, {"Country": "au", "City": "sydney", "AccentCity": "Sydney", "Region": "02", "Population": 4394585.0, "Latitude": -33.861481, "Longitude": 151.205475, "output": ":                                                           ", "full_output": "The geo-coordinates of Sydney are:                                                           ", "model": "opt", "model_size": "6.7b", "p_type": "0", "p_length": "zero-shot"}, {"Country": "au", "City": "townsville", "AccentCity": "Townsville", "Region": "04", "Population": 138959.0, "Latitude": -19.26639, "Longitude": 146.805695, "output": ":\n\nLatitude: -27.8\n\nLongitude: 151.8\n\nTownsville is located in the state of Queensland, Australia. Townsville is the capital of the North Queensland Region and the largest city in the state of Queensland, Australia. Townsville is located on", "full_output": "The geo-coordinates of Townsville are:\n\nLatitude: -27.8\n\nLongitude: 151.8\n\nTownsville is located in the state of Queensland, Australia. Townsville is the capital of the North Queensland Region and the largest city in the state of Queensland, Australia. Townsville is located on", "model": "opt", "model_size": "6.7b", "p_type": "0", "p_length": "zero-shot"}, {"Country": "au", "City": "wollongong", "AccentCity": "Wollongong", "Region": "02", "Population": 260918.0, "Latitude": -34.424, "Longitude": 150.893448, "output": ":                                                           ", "full_output": "The geo-coordinates of Wollongong are:                                                           ", "model": "opt", "model_size": "6.7b", "p_type": "0", "p_length": "zero-shot"}, {"Country": "az", "City": "baku", "AccentCity": "Baku", "Region": "09", "Population": 1116513.0, "Latitude": 40.395278000000005, "Longitude": 49.882222, "output": " in the middle of the Caspian Sea. It is the capital of Azerbaijan and the largest city in the country. Baku is the capital of Azerbaijan and the largest city in the country. Baku is the capital of Azerbaijan and the largest city in the country. Baku is the capital of", "full_output": "The geo-coordinates of Baku are in the middle of the Caspian Sea. It is the capital of Azerbaijan and the largest city in the country. Baku is the capital of Azerbaijan and the largest city in the country. Baku is the capital of Azerbaijan and the largest city in the country. Baku is the capital of", "model": "opt", "model_size": "6.7b", "p_type": "0", "p_length": "zero-shot"}, {"Country": "ba", "City": "banja luka", "AccentCity": "Banja Luka", "Region": "02", "Population": 221100.0, "Latitude": 44.7758333, "Longitude": 17.1855556, "output": " as follows:\n\nLatitude: 42.5\u00b0 N\n\nLongitude: 19.5\u00b0 E\n\nBanja Luka is the capital of Republika Srpska, a province of Bosnia and Herzegovina. It is located in the central part of the", "full_output": "The geo-coordinates of Banja Luka are as follows:\n\nLatitude: 42.5\u00b0 N\n\nLongitude: 19.5\u00b0 E\n\nBanja Luka is the capital of Republika Srpska, a province of Bosnia and Herzegovina. It is located in the central part of the", "model": "opt", "model_size": "6.7b", "p_type": "0", "p_length": "zero-shot"}, {"Country": "ba", "City": "mostar", "AccentCity": "Mostar", "Region": "01", "Population": 104517.0, "Latitude": 43.3433333, "Longitude": 17.8080556, "output": ":\n\nLatitude: 41.867\n\nLongitude: -4.867\n\nThe elevation of Mostar is:\n\nElevation (meters) : 7\n\nElevation (feet) : 0\n\nThe time zone of Mostar is:", "full_output": "The geo-coordinates of Mostar are:\n\nLatitude: 41.867\n\nLongitude: -4.867\n\nThe elevation of Mostar is:\n\nElevation (meters) : 7\n\nElevation (feet) : 0\n\nThe time zone of Mostar is:", "model": "opt", "model_size": "6.7b", "p_type": "0", "p_length": "zero-shot"}, {"Country": "ba", "City": "sarajevo", "AccentCity": "Sarajevo", "Region": "01", "Population": 696726.0, "Latitude": 43.85, "Longitude": 18.3833333, "output": ":                                                           ", "full_output": "The geo-coordinates of Sarajevo are:                                                           ", "model": "opt", "model_size": "6.7b", "p_type": "0", "p_length": "zero-shot"}, {"Country": "ba", "City": "tuzla", "AccentCity": "Tuzla", "Region": "01", "Population": 142484.0, "Latitude": 44.5427778, "Longitude": 18.6694444, "output": " as follows:\n\nLatitude: 39.8\n\nLongitude: 28.8\n\nTuzla is the capital city of Bosnia and Herzegovina. Tuzla is the largest city in Bosnia and Herzegovina. Tuzla is located in Bosnia and Herz", "full_output": "The geo-coordinates of Tuzla are as follows:\n\nLatitude: 39.8\n\nLongitude: 28.8\n\nTuzla is the capital city of Bosnia and Herzegovina. Tuzla is the largest city in Bosnia and Herzegovina. Tuzla is located in Bosnia and Herz", "model": "opt", "model_size": "6.7b", "p_type": "0", "p_length": "zero-shot"}, {"Country": "ba", "City": "zenica", "AccentCity": "Zenica", "Region": "01", "Population": 164422.0, "Latitude": 44.2013889, "Longitude": 17.9063889, "output": " as follows:\nLatitude: 39.867,\nLongitude: 19.867.\n\nZenica is a city in Bosnia and Herzegovina. It is the capital of Zenica-Doboj Canton.\n\nZenica is located on the banks of", "full_output": "The geo-coordinates of Zenica are as follows:\nLatitude: 39.867,\nLongitude: 19.867.\n\nZenica is a city in Bosnia and Herzegovina. It is the capital of Zenica-Doboj Canton.\n\nZenica is located on the banks of", "model": "opt", "model_size": "6.7b", "p_type": "0", "p_length": "zero-shot"}, {"Country": "bd", "City": "barisal", "AccentCity": "Barisal", "Region": "84", "Population": 280437.0, "Latitude": 22.7, "Longitude": 90.3666667, "output": " :-\n\nLatitude : 25.8\n\nLongitude : 88.8\n\nTime Zone : India Standard Time (IST)\n\nBarisal is located at the latitude of 25.8 and the longitude of 88.8. Barisal is located in the Indian state of", "full_output": "The geo-coordinates of Barisal are :-\n\nLatitude : 25.8\n\nLongitude : 88.8\n\nTime Zone : India Standard Time (IST)\n\nBarisal is located at the latitude of 25.8 and the longitude of 88.8. Barisal is located in the Indian state of", "model": "opt", "model_size": "6.7b", "p_type": "0", "p_length": "zero-shot"}, {"Country": "bd", "City": "bhairab bazar", "AccentCity": "Bhairab Bazar", "Region": "81", "Population": 105470.0, "Latitude": 24.0666667, "Longitude": 90.9666667, "output": " given below:\n\nBhairab Bazar\n\nBhairab Bazar is located at the longitude of 77.7 and latitude of 26.9. Bhairab Bazar Pin code is 203002 and postal head office is Bhairab Bazar. Bhairab B", "full_output": "The geo-coordinates of Bhairab Bazar are given below:\n\nBhairab Bazar\n\nBhairab Bazar is located at the longitude of 77.7 and latitude of 26.9. Bhairab Bazar Pin code is 203002 and postal head office is Bhairab Bazar. Bhairab B", "model": "opt", "model_size": "6.7b", "p_type": "0", "p_length": "zero-shot"}, {"Country": "bd", "City": "chandpur", "AccentCity": "Chandpur", "Region": "80", "Population": 120183.0, "Latitude": 23.15, "Longitude": 90.7166667, "output": ": Latitude: 25.8 and Longitude: 74.5.\n\nChandpur, Chandpur is a village in the Bhopal district of Madhya Pradesh, India. It is located in the Berasia tehsil.\n\nDemographics of Chandpur\n\nAccording", "full_output": "The geo-coordinates of Chandpur are: Latitude: 25.8 and Longitude: 74.5.\n\nChandpur, Chandpur is a village in the Bhopal district of Madhya Pradesh, India. It is located in the Berasia tehsil.\n\nDemographics of Chandpur\n\nAccording", "model": "opt", "model_size": "6.7b", "p_type": "0", "p_length": "zero-shot"}, {"Country": "bd", "City": "dhaka", "AccentCity": "Dhaka", "Region": "81", "Population": 6493177.0, "Latitude": 23.7230556, "Longitude": 90.4086111, "output": ":                                                           ", "full_output": "The geo-coordinates of Dhaka are:                                                           ", "model": "opt", "model_size": "6.7b", "p_type": "0", "p_length": "zero-shot"}, {"Country": "bd", "City": "dinajpur", "AccentCity": "Dinajpur", "Region": "83", "Population": 206251.0, "Latitude": 25.6333333, "Longitude": 88.6333333, "output": " :-\n\nLatitude : 25.8\n\nLongitude : 88.8\n\nDinajpur is located in the state of West Bengal, India.\n\nDinajpur is located in the district of Dinajpur.\n\nDinajpur is located in", "full_output": "The geo-coordinates of Dinajpur are :-\n\nLatitude : 25.8\n\nLongitude : 88.8\n\nDinajpur is located in the state of West Bengal, India.\n\nDinajpur is located in the district of Dinajpur.\n\nDinajpur is located in", "model": "opt", "model_size": "6.7b", "p_type": "0", "p_length": "zero-shot"}, {"Country": "bd", "City": "faridpur", "AccentCity": "Faridpur", "Region": "81", "Population": 112200.0, "Latitude": 23.6, "Longitude": 89.83333329999999, "output": ":\nLatitude: 26.5 and Longitude: 88.5.\n\nFaridpur is located in the state of West Bengal, India.\nFaridpur is the headquarters of Faridpur District.\nFaridpur District is located in the state of West Bengal, India", "full_output": "The geo-coordinates of Faridpur are:\nLatitude: 26.5 and Longitude: 88.5.\n\nFaridpur is located in the state of West Bengal, India.\nFaridpur is the headquarters of Faridpur District.\nFaridpur District is located in the state of West Bengal, India", "model": "opt", "model_size": "6.7b", "p_type": "0", "p_length": "zero-shot"}, {"Country": "bd", "City": "gazipur", "AccentCity": "Gazipur", "Region": "81", "Population": 132249.0, "Latitude": 23.8, "Longitude": 90.65, "output": ": Latitude: 26.7 and Longitude: 88.5.\n\nGazipur is located in the state of West Bengal, India.\n\nGazipur is located in the state of West Bengal, India.\n\nGazipur is located in the state", "full_output": "The geo-coordinates of Gazipur are: Latitude: 26.7 and Longitude: 88.5.\n\nGazipur is located in the state of West Bengal, India.\n\nGazipur is located in the state of West Bengal, India.\n\nGazipur is located in the state", "model": "opt", "model_size": "6.7b", "p_type": "0", "p_length": "zero-shot"}, {"Country": "bd", "City": "jamalpur", "AccentCity": "Jamalpur", "Region": "81", "Population": 167914.0, "Latitude": 24.9166667, "Longitude": 89.9333333, "output": ":\n\nLatitude: 26.867\n\nLongitude: 88.867\n\nJamalpur is located in the state of West Bengal, India.\n\nJamalpur is located in the district of Murshidabad.\n\nJamalpur is located in the", "full_output": "The geo-coordinates of Jamalpur are:\n\nLatitude: 26.867\n\nLongitude: 88.867\n\nJamalpur is located in the state of West Bengal, India.\n\nJamalpur is located in the district of Murshidabad.\n\nJamalpur is located in the", "model": "opt", "model_size": "6.7b", "p_type": "0", "p_length": "zero-shot"}, {"Country": "bd", "City": "khulna", "AccentCity": "Khulna", "Region": "82", "Population": 1342429.0, "Latitude": 22.8, "Longitude": 89.55, "output": " :-\n\nLatitude : 17.5\u00b0 N\n\nLongitude : 88.5\u00b0 E\n\nKhulna is located at the latitude of 17.5\u00b0 North and the longitude of 88.5\u00b0 East in Bangladesh.\n\nKhulna is located at the", "full_output": "The geo-coordinates of Khulna are :-\n\nLatitude : 17.5\u00b0 N\n\nLongitude : 88.5\u00b0 E\n\nKhulna is located at the latitude of 17.5\u00b0 North and the longitude of 88.5\u00b0 East in Bangladesh.\n\nKhulna is located at the", "model": "opt", "model_size": "6.7b", "p_type": "0", "p_length": "zero-shot"}, {"Country": "bd", "City": "narayanganj", "AccentCity": "Narayanganj", "Region": "81", "Population": 223773.0, "Latitude": 23.6233333, "Longitude": 90.5011111, "output": ":\n\nLatitude: 26.867\n\nLongitude: 88.867\n\nNarayanganj is located at the geographical coordinates of 26.867 and 88.867 in Bangladesh.\n\nNarayanganj is located at the geographical coordinates of 26.8", "full_output": "The geo-coordinates of Narayanganj are:\n\nLatitude: 26.867\n\nLongitude: 88.867\n\nNarayanganj is located at the geographical coordinates of 26.867 and 88.867 in Bangladesh.\n\nNarayanganj is located at the geographical coordinates of 26.8", "model": "opt", "model_size": "6.7b", "p_type": "0", "p_length": "zero-shot"}, {"Country": "bd", "City": "narsingdi", "AccentCity": "Narsingdi", "Region": "81", "Population": 281110.0, "Latitude": 23.9208333, "Longitude": 90.7180556, "output": " :-\n\nLatitude :- 18.5\u00b0 N\n\nLongitude :- 88.5\u00b0 E\n\nNarsingdi is located in the state of West Bengal, India.\n\nNarsingdi is located in the district of Nadia.\n\nNars", "full_output": "The geo-coordinates of Narsingdi are :-\n\nLatitude :- 18.5\u00b0 N\n\nLongitude :- 88.5\u00b0 E\n\nNarsingdi is located in the state of West Bengal, India.\n\nNarsingdi is located in the district of Nadia.\n\nNars", "model": "opt", "model_size": "6.7b", "p_type": "0", "p_length": "zero-shot"}, {"Country": "bd", "City": "nawabganj", "AccentCity": "Nawabganj", "Region": "83", "Population": 142373.0, "Latitude": 24.6, "Longitude": 88.2833333, "output": ": Latitude: 26.8167 and Longitude: 78.8167.\n\nNawabganj, Uttar Pradesh, India\n\nNawabganj, Uttar Pradesh, India\n\nNawabganj, Uttar Pradesh, India\n\nNawabganj", "full_output": "The geo-coordinates of Nawabganj are: Latitude: 26.8167 and Longitude: 78.8167.\n\nNawabganj, Uttar Pradesh, India\n\nNawabganj, Uttar Pradesh, India\n\nNawabganj, Uttar Pradesh, India\n\nNawabganj", "model": "opt", "model_size": "6.7b", "p_type": "0", "p_length": "zero-shot"}, {"Country": "bd", "City": "pabna", "AccentCity": "Pabna", "Region": "81", "Population": 137904.0, "Latitude": 24.0, "Longitude": 89.25, "output": ":\n\nLatitude: 24.7\u00b0N\n\nLongitude: 88.8\u00b0E\n\nPabna is located at the geographical center of Bangladesh.\n\nPabna is the capital of Pabna District.\n\nPabna is the largest city in Bangladesh", "full_output": "The geo-coordinates of Pabna are:\n\nLatitude: 24.7\u00b0N\n\nLongitude: 88.8\u00b0E\n\nPabna is located at the geographical center of Bangladesh.\n\nPabna is the capital of Pabna District.\n\nPabna is the largest city in Bangladesh", "model": "opt", "model_size": "6.7b", "p_type": "0", "p_length": "zero-shot"}, {"Country": "bd", "City": "rajshahi", "AccentCity": "Rajshahi", "Region": "81", "Population": 700206.0, "Latitude": 24.3666667, "Longitude": 88.6, "output": ":\n\nLatitude: 24.8\n\nLongitude: 88.8\n\nTime Zone: Asia/Bangladesh\n\nThe time zone in Rajshahi is Asia/Bangladesh.\n\nRajshahi is located in Bangladesh.\n\nRajshahi", "full_output": "The geo-coordinates of Rajshahi are:\n\nLatitude: 24.8\n\nLongitude: 88.8\n\nTime Zone: Asia/Bangladesh\n\nThe time zone in Rajshahi is Asia/Bangladesh.\n\nRajshahi is located in Bangladesh.\n\nRajshahi", "model": "opt", "model_size": "6.7b", "p_type": "0", "p_length": "zero-shot"}, {"Country": "bd", "City": "rangpur", "AccentCity": "Rangpur", "Region": "83", "Population": 285586.0, "Latitude": 25.75, "Longitude": 89.25, "output": ":\n\nLatitude: 24.8\n\nLongitude: 88.8\n\nTime Zone: India Standard Time (UTC+05:30)\n\nRangpur is located at the latitude of 24.8 and the longitude of 88.8 in India. Rangpur", "full_output": "The geo-coordinates of Rangpur are:\n\nLatitude: 24.8\n\nLongitude: 88.8\n\nTime Zone: India Standard Time (UTC+05:30)\n\nRangpur is located at the latitude of 24.8 and the longitude of 88.8 in India. Rangpur", "model": "opt", "model_size": "6.7b", "p_type": "0", "p_length": "zero-shot"}, {"Country": "bd", "City": "satkhira", "AccentCity": "Satkhira", "Region": "82", "Population": 128933.0, "Latitude": 22.7166667, "Longitude": 89.1, "output": " :-\n\nLatitude :- 26.5\u00b0 N\n\nLongitude :- 88.5\u00b0 E\n\nSatkhira is located at the latitude of 26.5\u00b0 North and the longitude of 88.5\u00b0 East in Bangladesh. Satkhira has an average elevation", "full_output": "The geo-coordinates of Satkhira are :-\n\nLatitude :- 26.5\u00b0 N\n\nLongitude :- 88.5\u00b0 E\n\nSatkhira is located at the latitude of 26.5\u00b0 North and the longitude of 88.5\u00b0 East in Bangladesh. Satkhira has an average elevation", "model": "opt", "model_size": "6.7b", "p_type": "0", "p_length": "zero-shot"}, {"Country": "bd", "City": "sherpur", "AccentCity": "Sherpur", "Region": "81", "Population": 107431.0, "Latitude": 25.0166667, "Longitude": 90.0166667, "output": ":\n\nLatitude: 26.867\n\nLongitude: 76.867\n\nTime Zone: India Standard Time (UTC+05:30)\n\nSherpur Weather\n\nThe climate of Sherpur is hot and humid throughout the year. The maximum temperature in Sherpur", "full_output": "The geo-coordinates of Sherpur are:\n\nLatitude: 26.867\n\nLongitude: 76.867\n\nTime Zone: India Standard Time (UTC+05:30)\n\nSherpur Weather\n\nThe climate of Sherpur is hot and humid throughout the year. The maximum temperature in Sherpur", "model": "opt", "model_size": "6.7b", "p_type": "0", "p_length": "zero-shot"}, {"Country": "bd", "City": "sirajganj", "AccentCity": "Sirajganj", "Region": "81", "Population": 167501.0, "Latitude": 24.45, "Longitude": 89.7166667, "output": ":\n\nLatitude: 26.867\n\nLongitude: 88.867\n\nTime Zone: India Standard Time (UTC+05:30)\n\nSirajganj is located at the latitude of 26.867 and the longitude of 88.867.", "full_output": "The geo-coordinates of Sirajganj are:\n\nLatitude: 26.867\n\nLongitude: 88.867\n\nTime Zone: India Standard Time (UTC+05:30)\n\nSirajganj is located at the latitude of 26.867 and the longitude of 88.867.", "model": "opt", "model_size": "6.7b", "p_type": "0", "p_length": "zero-shot"}, {"Country": "bd", "City": "tungi", "AccentCity": "Tungi", "Region": "81", "Population": 337620.0, "Latitude": 23.89, "Longitude": 90.4058333, "output": " as follows:\n\nLatitude:\n\nLongitude:\n\nAltitude:\n\nTungi is located in the state of Maharashtra in India.\n\nTungi is located in the state of Maharashtra in India.\n\nTungi is located in the state of Maharashtra", "full_output": "The geo-coordinates of Tungi are as follows:\n\nLatitude:\n\nLongitude:\n\nAltitude:\n\nTungi is located in the state of Maharashtra in India.\n\nTungi is located in the state of Maharashtra in India.\n\nTungi is located in the state of Maharashtra", "model": "opt", "model_size": "6.7b", "p_type": "0", "p_length": "zero-shot"}, {"Country": "be", "City": "antwerp", "AccentCity": "Antwerp", "Region": "01", "Population": 459805.0, "Latitude": 51.216667, "Longitude": 4.416667, "output": ":                                                           ", "full_output": "The geo-coordinates of Antwerp are:                                                           ", "model": "opt", "model_size": "6.7b", "p_type": "0", "p_length": "zero-shot"}, {"Country": "be", "City": "brugge", "AccentCity": "Brugge", "Region": "09", "Population": 116709.0, "Latitude": 51.216667, "Longitude": 3.233333, "output": " in Belgium, not in the Netherlands.                                                    ", "full_output": "The geo-coordinates of Brugge are in Belgium, not in the Netherlands.                                                    ", "model": "opt", "model_size": "6.7b", "p_type": "0", "p_length": "zero-shot"}, {"Country": "be", "City": "brussels", "AccentCity": "Brussels", "Region": "11", "Population": 1019022.0, "Latitude": 50.833333, "Longitude": 4.3333330000000005, "output": " in Belgium, not in the Netherlands.                                                    ", "full_output": "The geo-coordinates of Brussels are in Belgium, not in the Netherlands.                                                    ", "model": "opt", "model_size": "6.7b", "p_type": "0", "p_length": "zero-shot"}, {"Country": "be", "City": "charleroi", "AccentCity": "Charleroi", "Region": "03", "Population": 200132.0, "Latitude": 50.416667, "Longitude": 4.433333, "output": " in Belgium, not in France.                                                     ", "full_output": "The geo-coordinates of Charleroi are in Belgium, not in France.                                                     ", "model": "opt", "model_size": "6.7b", "p_type": "0", "p_length": "zero-shot"}, {"Country": "be", "City": "gent", "AccentCity": "Gent", "Region": "08", "Population": 231493.0, "Latitude": 51.05, "Longitude": 3.716667, "output": " in Belgium, not in the Netherlands.                                                    ", "full_output": "The geo-coordinates of Gent are in Belgium, not in the Netherlands.                                                    ", "model": "opt", "model_size": "6.7b", "p_type": "0", "p_length": "zero-shot"}, {"Country": "be", "City": "liege", "AccentCity": "Li\u00e8ge", "Region": "04", "Population": 182597.0, "Latitude": 50.633333, "Longitude": 5.566667, "output": ":\n\nLatitude:\n\nLongitude:\n\nAltitude:\n\nPopulation:\n\nLi\u00e8ge is the capital and largest city of the province of Li\u00e8ge in Belgium. It is located on the banks of the river Meuse. The city has a population of about", "full_output": "The geo-coordinates of Li\u00e8ge are:\n\nLatitude:\n\nLongitude:\n\nAltitude:\n\nPopulation:\n\nLi\u00e8ge is the capital and largest city of the province of Li\u00e8ge in Belgium. It is located on the banks of the river Meuse. The city has a population of about", "model": "opt", "model_size": "6.7b", "p_type": "0", "p_length": "zero-shot"}, {"Country": "be", "City": "namur", "AccentCity": "Namur", "Region": "07", "Population": 106284.0, "Latitude": 50.466667, "Longitude": 4.866667, "output": ":\n\nLatitude:\n\nLongitude:\n\nNamur is a city in the province of Namur, Belgium. It is the capital of the Namur Region. The city is located on the river Meuse, which forms the border between Belgium and the Netherlands. Namur", "full_output": "The geo-coordinates of Namur are:\n\nLatitude:\n\nLongitude:\n\nNamur is a city in the province of Namur, Belgium. It is the capital of the Namur Region. The city is located on the river Meuse, which forms the border between Belgium and the Netherlands. Namur", "model": "opt", "model_size": "6.7b", "p_type": "0", "p_length": "zero-shot"}, {"Country": "bf", "City": "bobo dioulasso", "AccentCity": "Bobo Dioulasso", "Region": "51", "Population": 370809.0, "Latitude": 11.2, "Longitude": -4.3, "output": ":                                                           ", "full_output": "The geo-coordinates of Bobo Dioulasso are:                                                           ", "model": "opt", "model_size": "6.7b", "p_type": "0", "p_length": "zero-shot"}, {"Country": "bf", "City": "ouagadougou", "AccentCity": "Ouagadougou", "Region": "53", "Population": 1031330.0, "Latitude": 12.3702778, "Longitude": -1.5247222, "output": ":                                                           ", "full_output": "The geo-coordinates of Ouagadougou are:                                                           ", "model": "opt", "model_size": "6.7b", "p_type": "0", "p_length": "zero-shot"}, {"Country": "bg", "City": "burgas", "AccentCity": "Burgas", "Region": "39", "Population": 188554.0, "Latitude": 42.5, "Longitude": 27.4666667, "output": ":\nLatitude: 40.955\nLongitude: 14.955\n\nBurgas is a city in Bulgaria. It is the capital of Burgas Province and Burgas Municipality. It is located on the Black Sea coast, on the Gulf of Burgas. The city", "full_output": "The geo-coordinates of Burgas are:\nLatitude: 40.955\nLongitude: 14.955\n\nBurgas is a city in Bulgaria. It is the capital of Burgas Province and Burgas Municipality. It is located on the Black Sea coast, on the Gulf of Burgas. The city", "model": "opt", "model_size": "6.7b", "p_type": "0", "p_length": "zero-shot"}, {"Country": "bg", "City": "pleven", "AccentCity": "Pleven", "Region": "50", "Population": 132542.0, "Latitude": 43.4166667, "Longitude": 24.6166667, "output": ":\n\nLatitude: 42.5\u00b0 N\n\nLongitude: 20.5\u00b0 E\n\nPleven is a city in Bulgaria. It is the capital of the Pleven Province. It is located in the northeastern part of the Balkan Peninsula. It is situated on the", "full_output": "The geo-coordinates of Pleven are:\n\nLatitude: 42.5\u00b0 N\n\nLongitude: 20.5\u00b0 E\n\nPleven is a city in Bulgaria. It is the capital of the Pleven Province. It is located in the northeastern part of the Balkan Peninsula. It is situated on the", "model": "opt", "model_size": "6.7b", "p_type": "0", "p_length": "zero-shot"}, {"Country": "bg", "City": "plovdiv", "AccentCity": "Plovdiv", "Region": "51", "Population": 332088.0, "Latitude": 42.15, "Longitude": 24.75, "output": ":\nLatitude: 40.95555\nLongitude: 16.95555\n\nPlovdiv is the capital and largest city of the Republic of Bulgaria. Plovdiv is located in the central part of the Balkan Peninsula, on the right bank of the Danube River", "full_output": "The geo-coordinates of Plovdiv are:\nLatitude: 40.95555\nLongitude: 16.95555\n\nPlovdiv is the capital and largest city of the Republic of Bulgaria. Plovdiv is located in the central part of the Balkan Peninsula, on the right bank of the Danube River", "model": "opt", "model_size": "6.7b", "p_type": "0", "p_length": "zero-shot"}, {"Country": "bg", "City": "ruse", "AccentCity": "Ruse", "Region": "53", "Population": 157519.0, "Latitude": 43.8563889, "Longitude": 25.9708333, "output": ": Latitude: 42.955, Longitude: 28.955.\n\nRuse is located in the state of New York in the United States of America.\n\nRuse is located in the county of Steuben.\n\nRuse is located in the zip code of", "full_output": "The geo-coordinates of Ruse are: Latitude: 42.955, Longitude: 28.955.\n\nRuse is located in the state of New York in the United States of America.\n\nRuse is located in the county of Steuben.\n\nRuse is located in the zip code of", "model": "opt", "model_size": "6.7b", "p_type": "0", "p_length": "zero-shot"}, {"Country": "bg", "City": "sofia", "AccentCity": "Sofia", "Region": "42", "Population": 1062065.0, "Latitude": 42.6833333, "Longitude": 23.3166667, "output": ":                                                           ", "full_output": "The geo-coordinates of Sofia are:                                                           ", "model": "opt", "model_size": "6.7b", "p_type": "0", "p_length": "zero-shot"}, {"Country": "bg", "City": "stara zagora", "AccentCity": "Stara Zagora", "Region": "59", "Population": 137760.0, "Latitude": 42.4327778, "Longitude": 25.6419444, "output": ": latitude 40.8 and longitude 27.8.\n\nStara Zagora is a city in Bulgaria. It is the capital of Stara Zagora Province. The city is located on the left bank of the Danube River. The population of Stara Zagora is", "full_output": "The geo-coordinates of Stara Zagora are: latitude 40.8 and longitude 27.8.\n\nStara Zagora is a city in Bulgaria. It is the capital of Stara Zagora Province. The city is located on the left bank of the Danube River. The population of Stara Zagora is", "model": "opt", "model_size": "6.7b", "p_type": "0", "p_length": "zero-shot"}, {"Country": "bg", "City": "varna", "AccentCity": "Varna", "Region": "61", "Population": 307952.0, "Latitude": 43.216666700000005, "Longitude": 27.9166667, "output": ":\n\nLatitude: 41.5\n\nLongitude: 27.5\n\nVarna is located at the geographical center of Bulgaria.\n\nVarna is located at the geographical center of Bulgaria.\n\nVarna is located at the geographical center of Bulgaria.\n\nVarna", "full_output": "The geo-coordinates of Varna are:\n\nLatitude: 41.5\n\nLongitude: 27.5\n\nVarna is located at the geographical center of Bulgaria.\n\nVarna is located at the geographical center of Bulgaria.\n\nVarna is located at the geographical center of Bulgaria.\n\nVarna", "model": "opt", "model_size": "6.7b", "p_type": "0", "p_length": "zero-shot"}, {"Country": "bh", "City": "manama", "AccentCity": "Manama", "Region": 2, "Population": 147097.0, "Latitude": 26.2361111, "Longitude": 50.5830556, "output": " in the middle of the Arabian Sea. It is the capital city of the Kingdom of Bahrain. Manama is the second largest city in Bahrain after the capital city of Manama. Manama is the capital city of the Kingdom of Bahrain. Manama is the capital city of the Kingdom of Bahrain.", "full_output": "The geo-coordinates of Manama are in the middle of the Arabian Sea. It is the capital city of the Kingdom of Bahrain. Manama is the second largest city in Bahrain after the capital city of Manama. Manama is the capital city of the Kingdom of Bahrain. Manama is the capital city of the Kingdom of Bahrain.", "model": "opt", "model_size": "6.7b", "p_type": "0", "p_length": "zero-shot"}, {"Country": "bi", "City": "bujumbura", "AccentCity": "Bujumbura", "Region": 2, "Population": 330539.0, "Latitude": -3.3761111000000006, "Longitude": 29.36, "output": ":\n\nLatitude:\n\nLongitude:\n\nAltitude:\n\nBujumbura is the capital and largest city of Burundi. It is located on the shores of Lake Tanganyika in the north of the country.\n\nBujumbura is the capital", "full_output": "The geo-coordinates of Bujumbura are:\n\nLatitude:\n\nLongitude:\n\nAltitude:\n\nBujumbura is the capital and largest city of Burundi. It is located on the shores of Lake Tanganyika in the north of the country.\n\nBujumbura is the capital", "model": "opt", "model_size": "6.7b", "p_type": "0", "p_length": "zero-shot"}, {"Country": "bj", "City": "abomey-calavi", "AccentCity": "Abomey-Calavi", "Region": 5, "Population": 385823.0, "Latitude": 6.45, "Longitude": 2.35, "output": ":\n\nLatitude: 14.955\n\nLongitude: 4.955\n\nAbomey-Calavi is located in the West African country of Benin. Abomey-Calavi is located in the West African country of Benin.\n\nAbomey", "full_output": "The geo-coordinates of Abomey-Calavi are:\n\nLatitude: 14.955\n\nLongitude: 4.955\n\nAbomey-Calavi is located in the West African country of Benin. Abomey-Calavi is located in the West African country of Benin.\n\nAbomey", "model": "opt", "model_size": "6.7b", "p_type": "0", "p_length": "zero-shot"}, {"Country": "bj", "City": "bohicon", "AccentCity": "Bohicon", "Region": 18, "Population": 125116.0, "Latitude": 7.2, "Longitude": 2.0666667000000003, "output": " as follows:\n\nLatitude:\n\nLongitude:\n\nElevation:\n\nBohicon is located in the state of New Jersey in the United States of America.\n\nBohicon is located in the county of Bergen in the state of New Jersey in the", "full_output": "The geo-coordinates of Bohicon are as follows:\n\nLatitude:\n\nLongitude:\n\nElevation:\n\nBohicon is located in the state of New Jersey in the United States of America.\n\nBohicon is located in the county of Bergen in the state of New Jersey in the", "model": "opt", "model_size": "6.7b", "p_type": "0", "p_length": "zero-shot"}, {"Country": "bj", "City": "cotonou", "AccentCity": "Cotonou", "Region": 14, "Population": 690584.0, "Latitude": 6.35, "Longitude": 2.4333333, "output": ":\n\nCotonou is the capital of Benin and the largest city in Benin. Cotonou is located on the banks of the Niger River. Cotonou is also known as the \u201cParis of West Africa\u201d. Cotonou is also known as the \u201c", "full_output": "The geo-coordinates of Cotonou are:\n\nCotonou is the capital of Benin and the largest city in Benin. Cotonou is located on the banks of the Niger River. Cotonou is also known as the \u201cParis of West Africa\u201d. Cotonou is also known as the \u201c", "model": "opt", "model_size": "6.7b", "p_type": "0", "p_length": "zero-shot"}, {"Country": "bj", "City": "djougou", "AccentCity": "Djougou", "Region": 13, "Population": 202834.0, "Latitude": 9.705, "Longitude": 1.6669444, "output": ":\nLatitude: 10.86767\nLongitude: -4.86767\n\nDjougou is located at the following coordinates:\nLatitude: 10.86767\nLongitude: -4.86767\n\nDjougou is located", "full_output": "The geo-coordinates of Djougou are:\nLatitude: 10.86767\nLongitude: -4.86767\n\nDjougou is located at the following coordinates:\nLatitude: 10.86767\nLongitude: -4.86767\n\nDjougou is located", "model": "opt", "model_size": "6.7b", "p_type": "0", "p_length": "zero-shot"}, {"Country": "bj", "City": "kandi", "AccentCity": "Kandi", "Region": 7, "Population": 109705.0, "Latitude": 11.134166699999998, "Longitude": 2.9386111, "output": " as follows:\n\nLatitude: 26.867\n\nLongitude: -79.867\n\nKandi is located at the latitude of 26.867 and the longitude of -79.867 in India.\n\nKandi Weather\n\nKandi has a", "full_output": "The geo-coordinates of Kandi are as follows:\n\nLatitude: 26.867\n\nLongitude: -79.867\n\nKandi is located at the latitude of 26.867 and the longitude of -79.867 in India.\n\nKandi Weather\n\nKandi has a", "model": "opt", "model_size": "6.7b", "p_type": "0", "p_length": "zero-shot"}, {"Country": "bj", "City": "parakou", "AccentCity": "Parakou", "Region": 10, "Population": 163759.0, "Latitude": 9.35, "Longitude": 2.6166667, "output": ":\n\nLatitude: 18.867\n\nLongitude: -10.867\n\nThe elevation of Parakou is:\n\nLatitude: 18.867\n\nLongitude: -10.867\n\nThe time zone of Parakou is:", "full_output": "The geo-coordinates of Parakou are:\n\nLatitude: 18.867\n\nLongitude: -10.867\n\nThe elevation of Parakou is:\n\nLatitude: 18.867\n\nLongitude: -10.867\n\nThe time zone of Parakou is:", "model": "opt", "model_size": "6.7b", "p_type": "0", "p_length": "zero-shot"}, {"Country": "bo", "City": "cochabamba", "AccentCity": "Cochabamba", "Region": 2, "Population": 900440.0, "Latitude": -17.3833333, "Longitude": -66.15, "output": ":\n\nLatitude:\n\nLongitude:\n\nAltitude:\n\nCochabamba is the capital and largest city of the department of Cochabamba in Bolivia. It is located at an altitude of 2,890 metres (9,500 ft) above sea level.", "full_output": "The geo-coordinates of Cochabamba are:\n\nLatitude:\n\nLongitude:\n\nAltitude:\n\nCochabamba is the capital and largest city of the department of Cochabamba in Bolivia. It is located at an altitude of 2,890 metres (9,500 ft) above sea level.", "model": "opt", "model_size": "6.7b", "p_type": "0", "p_length": "zero-shot"}, {"Country": "bo", "City": "la paz", "AccentCity": "La Paz", "Region": 4, "Population": 812819.0, "Latitude": -16.5, "Longitude": -68.15, "output": ":\n\nLatitude:\n\nLongitude:\n\nLatitude:\n\nLongitude:\n\nLatitude:\n\nLongitude:\n\nLatitude:\n\nLongitude:\n\nLatitude:\n\nLongitude:\n\nLatitude:\n\nLongitude", "full_output": "The geo-coordinates of La Paz are:\n\nLatitude:\n\nLongitude:\n\nLatitude:\n\nLongitude:\n\nLatitude:\n\nLongitude:\n\nLatitude:\n\nLongitude:\n\nLatitude:\n\nLongitude:\n\nLatitude:\n\nLongitude", "model": "opt", "model_size": "6.7b", "p_type": "0", "p_length": "zero-shot"}, {"Country": "bo", "City": "oruro", "AccentCity": "Oruro", "Region": 5, "Population": 208687.0, "Latitude": -17.9833333, "Longitude": -67.15, "output": " in the following table.\n\nGeo-coordinates of Oruro\n\nLatitude:\n\nLongitude:\n\nOruro, Bolivia\n\nLatitude:\n\nLongitude:\n\nOruro, Bolivia\n\nLatitude:\n\nLongitude:", "full_output": "The geo-coordinates of Oruro are in the following table.\n\nGeo-coordinates of Oruro\n\nLatitude:\n\nLongitude:\n\nOruro, Bolivia\n\nLatitude:\n\nLongitude:\n\nOruro, Bolivia\n\nLatitude:\n\nLongitude:", "model": "opt", "model_size": "6.7b", "p_type": "0", "p_length": "zero-shot"}, {"Country": "bo", "City": "potosi", "AccentCity": "Potos\u00ed", "Region": 7, "Population": 141254.0, "Latitude": -19.5836111, "Longitude": -65.7530556, "output": ":\n\nLatitude:\n\nLongitude:\n\nTime Zone:\n\nPotos\u00ed is located in the Central Time Zone (UTC-5).\n\nPotos\u00ed is located in the Central America Time Zone (UTC-4).\n\nPotos\u00ed is located in the", "full_output": "The geo-coordinates of Potos\u00ed are:\n\nLatitude:\n\nLongitude:\n\nTime Zone:\n\nPotos\u00ed is located in the Central Time Zone (UTC-5).\n\nPotos\u00ed is located in the Central America Time Zone (UTC-4).\n\nPotos\u00ed is located in the", "model": "opt", "model_size": "6.7b", "p_type": "0", "p_length": "zero-shot"}, {"Country": "bo", "City": "sucre", "AccentCity": "Sucre", "Region": 1, "Population": 224846.0, "Latitude": -19.0430556, "Longitude": -65.25916670000001, "output": ":\n\nLatitude:\n\nLongitude:\n\nAltitude:\n\nSucre is the capital and largest city of the Bolivian department of Santa Cruz. It is located at an altitude of 1,890 metres (6,000 ft) above sea level. Suc", "full_output": "The geo-coordinates of Sucre are:\n\nLatitude:\n\nLongitude:\n\nAltitude:\n\nSucre is the capital and largest city of the Bolivian department of Santa Cruz. It is located at an altitude of 1,890 metres (6,000 ft) above sea level. Suc", "model": "opt", "model_size": "6.7b", "p_type": "0", "p_length": "zero-shot"}, {"Country": "bo", "City": "tarija", "AccentCity": "Tarija", "Region": 9, "Population": 159275.0, "Latitude": -21.5166667, "Longitude": -64.75, "output": ":\n\nLatitude:\n\nLongitude:\n\nAltitude:\n\nTarija is located in the state of Chihuahua, Mexico.\n\nTarija is located in the state of Chihuahua, Mexico.\n\nTarija is located in", "full_output": "The geo-coordinates of Tarija are:\n\nLatitude:\n\nLongitude:\n\nAltitude:\n\nTarija is located in the state of Chihuahua, Mexico.\n\nTarija is located in the state of Chihuahua, Mexico.\n\nTarija is located in", "model": "opt", "model_size": "6.7b", "p_type": "0", "p_length": "zero-shot"}, {"Country": "br", "City": "alagoinhas", "AccentCity": "Alagoinhas", "Region": 5, "Population": 122692.0, "Latitude": -12.116667, "Longitude": -38.433333000000005, "output": " given below:\n\nAlagoinhas is located in the state of Goa, India.\n\nAlagoinhas is located in the state of Goa, India.\n\nAlagoinhas is located in the state of Goa, India.\n\nAlagoinhas", "full_output": "The geo-coordinates of Alagoinhas are given below:\n\nAlagoinhas is located in the state of Goa, India.\n\nAlagoinhas is located in the state of Goa, India.\n\nAlagoinhas is located in the state of Goa, India.\n\nAlagoinhas", "model": "opt", "model_size": "6.7b", "p_type": "0", "p_length": "zero-shot"}, {"Country": "br", "City": "americana", "AccentCity": "Americana", "Region": 27, "Population": 196026.0, "Latitude": -22.740278, "Longitude": -47.334444, "output": " as follows:\n\nAmericana is located in the state of California, in the United States.\n\nAmericana is located in the county of Los Angeles, in the state of California, in the United States.\n\nAmericana is located in the city of Los Angeles, in the state", "full_output": "The geo-coordinates of Americana are as follows:\n\nAmericana is located in the state of California, in the United States.\n\nAmericana is located in the county of Los Angeles, in the state of California, in the United States.\n\nAmericana is located in the city of Los Angeles, in the state", "model": "opt", "model_size": "6.7b", "p_type": "0", "p_length": "zero-shot"}, {"Country": "br", "City": "ananindeua", "AccentCity": "Ananindeua", "Region": 16, "Population": 433956.0, "Latitude": -1.366667, "Longitude": -48.383333, "output": " given below:\n\nAnanindeua is located in the state of Karnataka, India. Ananindeua Pin code is 560005 and postal head office is Ananindeua. Ananindeua is located in the North Karnataka region of Karnataka.", "full_output": "The geo-coordinates of Ananindeua are given below:\n\nAnanindeua is located in the state of Karnataka, India. Ananindeua Pin code is 560005 and postal head office is Ananindeua. Ananindeua is located in the North Karnataka region of Karnataka.", "model": "opt", "model_size": "6.7b", "p_type": "0", "p_length": "zero-shot"}, {"Country": "br", "City": "anapolis", "AccentCity": "An\u00e1polis", "Region": 29, "Population": 319592.0, "Latitude": -16.333333, "Longitude": -48.966667, "output": ":\n\nLatitude:\n\nLongitude:\n\nAn\u00e1polis is located in the state of S\u00e3o Paulo, Brazil.\n\nAn\u00e1polis is located in the state of S\u00e3o Paulo, Brazil.\n\nAn\u00e1polis is located in the state of S", "full_output": "The geo-coordinates of An\u00e1polis are:\n\nLatitude:\n\nLongitude:\n\nAn\u00e1polis is located in the state of S\u00e3o Paulo, Brazil.\n\nAn\u00e1polis is located in the state of S\u00e3o Paulo, Brazil.\n\nAn\u00e1polis is located in the state of S", "model": "opt", "model_size": "6.7b", "p_type": "0", "p_length": "zero-shot"}, {"Country": "br", "City": "angra dos reis", "AccentCity": "Angra dos Reis", "Region": 21, "Population": 153637.0, "Latitude": -23.0, "Longitude": -44.3, "output": " 46.7\u00b0 N, 18.7\u00b0 W.\n\nAngra dos Reis is a city in the state of Rio de Janeiro, Brazil. It is the capital of the municipality of Angra dos Reis. The city is located on the coast of the Atlantic Ocean, about 50", "full_output": "The geo-coordinates of Angra dos Reis are 46.7\u00b0 N, 18.7\u00b0 W.\n\nAngra dos Reis is a city in the state of Rio de Janeiro, Brazil. It is the capital of the municipality of Angra dos Reis. The city is located on the coast of the Atlantic Ocean, about 50", "model": "opt", "model_size": "6.7b", "p_type": "0", "p_length": "zero-shot"}, {"Country": "br", "City": "apucarana", "AccentCity": "Apucarana", "Region": 18, "Population": 107086.0, "Latitude": -23.55, "Longitude": -51.483333, "output": " :-\n\nLatitude :\n\nLongitude :\n\nTime Zone :\n\nTime in Apucarana :\n\nTime in Rio de Janeiro :\n\nDirection from Apucarana to Rio de Janeiro :\n\nDistance from Apucarana to Rio de Janeiro", "full_output": "The geo-coordinates of Apucarana are :-\n\nLatitude :\n\nLongitude :\n\nTime Zone :\n\nTime in Apucarana :\n\nTime in Rio de Janeiro :\n\nDirection from Apucarana to Rio de Janeiro :\n\nDistance from Apucarana to Rio de Janeiro", "model": "opt", "model_size": "6.7b", "p_type": "0", "p_length": "zero-shot"}, {"Country": "br", "City": "aracaju", "AccentCity": "Aracaju", "Region": 28, "Population": 490184.0, "Latitude": -10.916667, "Longitude": -37.066667, "output": ": latitude -21.5 and longitude -70.5.\n\nAracaju Weather\n\nAracaju has a tropical savanna climate (K\u00f6ppen climate classification Aw). The average annual temperature in Aracaju is 26.7 \u00b0C. The average", "full_output": "The geo-coordinates of Aracaju are: latitude -21.5 and longitude -70.5.\n\nAracaju Weather\n\nAracaju has a tropical savanna climate (K\u00f6ppen climate classification Aw). The average annual temperature in Aracaju is 26.7 \u00b0C. The average", "model": "opt", "model_size": "6.7b", "p_type": "0", "p_length": "zero-shot"}, {"Country": "br", "City": "aracatuba", "AccentCity": "Ara\u00e7atuba", "Region": 27, "Population": 170028.0, "Latitude": -21.2, "Longitude": -50.416667, "output": ": Latitude -33.867 and Longitude -92.867.\n\nAra\u00e7atuba, Brazil\n\nAra\u00e7atuba is a city in the state of S\u00e3o Paulo, Brazil. It is the seat of the municipality of Ara\u00e7atuba. The", "full_output": "The geo-coordinates of Ara\u00e7atuba are: Latitude -33.867 and Longitude -92.867.\n\nAra\u00e7atuba, Brazil\n\nAra\u00e7atuba is a city in the state of S\u00e3o Paulo, Brazil. It is the seat of the municipality of Ara\u00e7atuba. The", "model": "opt", "model_size": "6.7b", "p_type": "0", "p_length": "zero-shot"}, {"Country": "br", "City": "araguaina", "AccentCity": "Aragua\u00edna", "Region": 31, "Population": 114959.0, "Latitude": -7.16, "Longitude": -48.0575, "output": ":\n\nLatitude:\n\nLongitude:\n\nAragua\u00edna, Brazil\n\nAragua\u00edna, Brazil\n\nAragua\u00edna, Brazil\n\nAragua\u00edna, Brazil\n\nAragua\u00edna, Brazil\n\nArag", "full_output": "The geo-coordinates of Aragua\u00edna are:\n\nLatitude:\n\nLongitude:\n\nAragua\u00edna, Brazil\n\nAragua\u00edna, Brazil\n\nAragua\u00edna, Brazil\n\nAragua\u00edna, Brazil\n\nAragua\u00edna, Brazil\n\nArag", "model": "opt", "model_size": "6.7b", "p_type": "0", "p_length": "zero-shot"}, {"Country": "br", "City": "arapiraca", "AccentCity": "Arapiraca", "Region": 2, "Population": 166566.0, "Latitude": -9.75, "Longitude": -36.65, "output": ":\n\nLatitude:\n\nLongitude:\n\nArapiraca is located at the following coordinates:\n\nLatitude:\n\nLongitude:\n\nArapiraca is located at the following coordinates:\n\nLatitude:\n\nLongitude:\n\nA", "full_output": "The geo-coordinates of Arapiraca are:\n\nLatitude:\n\nLongitude:\n\nArapiraca is located at the following coordinates:\n\nLatitude:\n\nLongitude:\n\nArapiraca is located at the following coordinates:\n\nLatitude:\n\nLongitude:\n\nA", "model": "opt", "model_size": "6.7b", "p_type": "0", "p_length": "zero-shot"}, {"Country": "br", "City": "araraquara", "AccentCity": "Araraquara", "Region": 27, "Population": 185191.0, "Latitude": -21.783333, "Longitude": -48.166667, "output": ": Latitude: 26.7 and Longitude: -92.8.\n\nAraraquara is located in the state of S\u00e3o Paulo, Brazil.\n\nAraraquara is located in the state of S\u00e3o Paulo, Brazil.\n\nAraraquara is located", "full_output": "The geo-coordinates of Araraquara are: Latitude: 26.7 and Longitude: -92.8.\n\nAraraquara is located in the state of S\u00e3o Paulo, Brazil.\n\nAraraquara is located in the state of S\u00e3o Paulo, Brazil.\n\nAraraquara is located", "model": "opt", "model_size": "6.7b", "p_type": "0", "p_length": "zero-shot"}, {"Country": "br", "City": "araras", "AccentCity": "Araras", "Region": 27, "Population": 107465.0, "Latitude": -22.366667, "Longitude": -47.383333, "output": " as follows:\n\nLatitude: 30.5\u00b0N\n\nLongitude: 103.5\u00b0E\n\nAraras is located at the latitude of 30.5\u00b0N and the longitude of 103.5\u00b0E in India.\n\nAraras Weather\n\n", "full_output": "The geo-coordinates of Araras are as follows:\n\nLatitude: 30.5\u00b0N\n\nLongitude: 103.5\u00b0E\n\nAraras is located at the latitude of 30.5\u00b0N and the longitude of 103.5\u00b0E in India.\n\nAraras Weather\n\n", "model": "opt", "model_size": "6.7b", "p_type": "0", "p_length": "zero-shot"}, {"Country": "br", "City": "araruama", "AccentCity": "Araruama", "Region": 21, "Population": 109638.0, "Latitude": -22.883333, "Longitude": -42.333333, "output": ":\nLatitude: -18.867\nLongitude: -71.867\n\nAraruama is located at the latitude of -18.867 and the longitude of -71.867 in New Caledonia, South Pacific Ocean.\n\nAraruama", "full_output": "The geo-coordinates of Araruama are:\nLatitude: -18.867\nLongitude: -71.867\n\nAraruama is located at the latitude of -18.867 and the longitude of -71.867 in New Caledonia, South Pacific Ocean.\n\nAraruama", "model": "opt", "model_size": "6.7b", "p_type": "0", "p_length": "zero-shot"}, {"Country": "br", "City": "araucaria", "AccentCity": "Arauc\u00e1ria", "Region": 18, "Population": 111303.0, "Latitude": -25.583333, "Longitude": -49.416667, "output": ":\n\nLatitude: 42\u00b0 0' 0\" South\n\nLongitude: 51\u00b0 0' 0\" West\n\nArauc\u00e1ria is located at the following coordinates:\n\nLatitude: 42\u00b0 0' 0\" South\n\nLongitude: 51\u00b0 0'", "full_output": "The geo-coordinates of Arauc\u00e1ria are:\n\nLatitude: 42\u00b0 0' 0\" South\n\nLongitude: 51\u00b0 0' 0\" West\n\nArauc\u00e1ria is located at the following coordinates:\n\nLatitude: 42\u00b0 0' 0\" South\n\nLongitude: 51\u00b0 0'", "model": "opt", "model_size": "6.7b", "p_type": "0", "p_length": "zero-shot"}, {"Country": "br", "City": "atibaia", "AccentCity": "Atibaia", "Region": 27, "Population": 110970.0, "Latitude": -23.124167, "Longitude": -46.562222, "output": ": Latitude: 42.867 and Longitude: -2.867.\n\nAtibaia Weather\n\nAtibaia Weather\n\nAtibaia Weather\n\nAtibaia Weather\n\nAtibaia Weather\n\nAtibaia Weather\n\nAtibaia Weather", "full_output": "The geo-coordinates of Atibaia are: Latitude: 42.867 and Longitude: -2.867.\n\nAtibaia Weather\n\nAtibaia Weather\n\nAtibaia Weather\n\nAtibaia Weather\n\nAtibaia Weather\n\nAtibaia Weather\n\nAtibaia Weather", "model": "opt", "model_size": "6.7b", "p_type": "0", "p_length": "zero-shot"}, {"Country": "br", "City": "barbacena", "AccentCity": "Barbacena", "Region": 15, "Population": 122213.0, "Latitude": -21.233333, "Longitude": -43.766667, "output": ":\n\nLatitude:\n\nLongitude:\n\nBarbacena is located at the following coordinates:\n\nLatitude:\n\nLongitude:\n\nBarbacena is located at the following coordinates:\n\nLatitude:\n\nLongitude:\n\nBar", "full_output": "The geo-coordinates of Barbacena are:\n\nLatitude:\n\nLongitude:\n\nBarbacena is located at the following coordinates:\n\nLatitude:\n\nLongitude:\n\nBarbacena is located at the following coordinates:\n\nLatitude:\n\nLongitude:\n\nBar", "model": "opt", "model_size": "6.7b", "p_type": "0", "p_length": "zero-shot"}, {"Country": "br", "City": "barra mansa", "AccentCity": "Barra Mansa", "Region": 21, "Population": 164054.0, "Latitude": -22.533333, "Longitude": -44.183333000000005, "output": ":\n\nLatitude: 18.867\n\nLongitude: -73.867\n\nThe coordinates of Barra Mansa are:\n\nLatitude: 18.867\n\nLongitude: -73.867\n\nThe coordinates of Barra Mansa are", "full_output": "The geo-coordinates of Barra Mansa are:\n\nLatitude: 18.867\n\nLongitude: -73.867\n\nThe coordinates of Barra Mansa are:\n\nLatitude: 18.867\n\nLongitude: -73.867\n\nThe coordinates of Barra Mansa are", "model": "opt", "model_size": "6.7b", "p_type": "0", "p_length": "zero-shot"}, {"Country": "br", "City": "barreiras", "AccentCity": "Barreiras", "Region": 5, "Population": 158296.0, "Latitude": -12.133333, "Longitude": -45.0, "output": ": Latitude: 42.867 and Longitude: -4.867.\n\nBarreiras is located in the state of Minas Gerais, Brazil.\n\nBarreiras is located in the state of Minas Gerais, Brazil.\n\n", "full_output": "The geo-coordinates of Barreiras are: Latitude: 42.867 and Longitude: -4.867.\n\nBarreiras is located in the state of Minas Gerais, Brazil.\n\nBarreiras is located in the state of Minas Gerais, Brazil.\n\n", "model": "opt", "model_size": "6.7b", "p_type": "0", "p_length": "zero-shot"}, {"Country": "br", "City": "barretos", "AccentCity": "Barretos", "Region": 27, "Population": 101222.0, "Latitude": -20.55, "Longitude": -48.55, "output": " as follows: Latitude: 26.867 and Longitude: -98.867.\n\nBarretos is located at the latitude of 26.867 and the longitude of -98.867 in Brazil.\n\nBarretos Weather\n\nThe average temperature in", "full_output": "The geo-coordinates of Barretos are as follows: Latitude: 26.867 and Longitude: -98.867.\n\nBarretos is located at the latitude of 26.867 and the longitude of -98.867 in Brazil.\n\nBarretos Weather\n\nThe average temperature in", "model": "opt", "model_size": "6.7b", "p_type": "0", "p_length": "zero-shot"}, {"Country": "br", "City": "barueri", "AccentCity": "Barueri", "Region": 27, "Population": 251999.0, "Latitude": -23.516667, "Longitude": -46.883333, "output": ": Latitude: 26.7 and Longitude: -73.8.\n\nBarueri is located in the state of Rio de Janeiro, Brazil.\n\nBarueri is located in the state of Rio de Janeiro, Brazil.\n\nBarueri is located in the state", "full_output": "The geo-coordinates of Barueri are: Latitude: 26.7 and Longitude: -73.8.\n\nBarueri is located in the state of Rio de Janeiro, Brazil.\n\nBarueri is located in the state of Rio de Janeiro, Brazil.\n\nBarueri is located in the state", "model": "opt", "model_size": "6.7b", "p_type": "0", "p_length": "zero-shot"}, {"Country": "br", "City": "bauru", "AccentCity": "Bauru", "Region": 27, "Population": 335031.0, "Latitude": -22.316667, "Longitude": -49.066667, "output": ": Latitude: -27.867 and Longitude: 53.867.\n\nBauru Weather\n\nBauru Weather\n\nBauru Weather\n\nBauru Weather\n\nBauru Weather\n\nBauru Weather\n\nBauru Weather", "full_output": "The geo-coordinates of Bauru are: Latitude: -27.867 and Longitude: 53.867.\n\nBauru Weather\n\nBauru Weather\n\nBauru Weather\n\nBauru Weather\n\nBauru Weather\n\nBauru Weather\n\nBauru Weather", "model": "opt", "model_size": "6.7b", "p_type": "0", "p_length": "zero-shot"}, {"Country": "br", "City": "belem", "AccentCity": "Bel\u00e9m", "Region": 16, "Population": 1407737.0, "Latitude": -1.45, "Longitude": -48.483333, "output": ":                                                           ", "full_output": "The geo-coordinates of Bel\u00e9m are:                                                           ", "model": "opt", "model_size": "6.7b", "p_type": "0", "p_length": "zero-shot"}, {"Country": "br", "City": "belford roxo", "AccentCity": "Belford Roxo", "Region": 21, "Population": 466101.0, "Latitude": -22.761995, "Longitude": -43.404654, "output": ": Latitude: 40.83333, Longitude: -74.83333. Belford Roxo is located in the state of New South Wales, Australia. Belford Roxo is located within the local government area of the City of Lake Macquarie.\n\nBelford Roxo", "full_output": "The geo-coordinates of Belford Roxo are: Latitude: 40.83333, Longitude: -74.83333. Belford Roxo is located in the state of New South Wales, Australia. Belford Roxo is located within the local government area of the City of Lake Macquarie.\n\nBelford Roxo", "model": "opt", "model_size": "6.7b", "p_type": "0", "p_length": "zero-shot"}, {"Country": "br", "City": "belo horizonte", "AccentCity": "Belo Horizonte", "Region": 15, "Population": 2373255.0, "Latitude": -19.916667, "Longitude": -43.933333000000005, "output": ": -37.8981\u00b0, 51.8981\u00b0.\n\nBelo Horizonte is the capital of the state of Minas Gerais, Brazil. It is the largest city in Minas Gerais and one of the largest cities in Brazil. Belo Horizon", "full_output": "The geo-coordinates of Belo Horizonte are: -37.8981\u00b0, 51.8981\u00b0.\n\nBelo Horizonte is the capital of the state of Minas Gerais, Brazil. It is the largest city in Minas Gerais and one of the largest cities in Brazil. Belo Horizon", "model": "opt", "model_size": "6.7b", "p_type": "0", "p_length": "zero-shot"}, {"Country": "br", "City": "betim", "AccentCity": "Betim", "Region": 15, "Population": 384038.0, "Latitude": -19.966667, "Longitude": -44.216667, "output": ": Latitude: 35.567 and Longitude: -98.867.\n\nBetim is located at the latitude of 35.567 and the longitude of -98.867.\n\nBetim is located at the latitude of 35.567 and the long", "full_output": "The geo-coordinates of Betim are: Latitude: 35.567 and Longitude: -98.867.\n\nBetim is located at the latitude of 35.567 and the longitude of -98.867.\n\nBetim is located at the latitude of 35.567 and the long", "model": "opt", "model_size": "6.7b", "p_type": "0", "p_length": "zero-shot"}, {"Country": "br", "City": "birigui", "AccentCity": "Birigui", "Region": 27, "Population": 102279.0, "Latitude": -21.3, "Longitude": -50.316667, "output": ":\n\nLatitude:\n\nLongitude:\n\nAltitude:\n\nPopulation:\n\nBirigui is a village in the Birigui Rural District, in the Central District of Birjand County, South Khorasan Province, Iran. At the 2006 census, its", "full_output": "The geo-coordinates of Birigui are:\n\nLatitude:\n\nLongitude:\n\nAltitude:\n\nPopulation:\n\nBirigui is a village in the Birigui Rural District, in the Central District of Birjand County, South Khorasan Province, Iran. At the 2006 census, its", "model": "opt", "model_size": "6.7b", "p_type": "0", "p_length": "zero-shot"}, {"Country": "br", "City": "blumenau", "AccentCity": "Blumenau", "Region": 26, "Population": 293955.0, "Latitude": -26.9222, "Longitude": -49.0615, "output": ": Latitude: -33.867 and Longitude: -92.867.\n\nBlumenau is located in the state of Rio Grande do Sul, Brazil.\n\nThe elevation of Blumenau is 9 meters above sea level.\n\nThe time zone in Blumen", "full_output": "The geo-coordinates of Blumenau are: Latitude: -33.867 and Longitude: -92.867.\n\nBlumenau is located in the state of Rio Grande do Sul, Brazil.\n\nThe elevation of Blumenau is 9 meters above sea level.\n\nThe time zone in Blumen", "model": "opt", "model_size": "6.7b", "p_type": "0", "p_length": "zero-shot"}, {"Country": "br", "City": "boa vista", "AccentCity": "Boa Vista", "Region": 25, "Population": 235159.0, "Latitude": 2.816667, "Longitude": -60.666667, "output": " located in the state of Rio Grande do Sul, Brazil.\n\nBoa Vista has a tropical savanna climate (K\u00f6ppen climate classification Aw). The average annual temperature in Boa Vista is 21 \u00b0C. The warmest month is August, when the average temperature is around 26 \u00b0", "full_output": "The geo-coordinates of Boa Vista are located in the state of Rio Grande do Sul, Brazil.\n\nBoa Vista has a tropical savanna climate (K\u00f6ppen climate classification Aw). The average annual temperature in Boa Vista is 21 \u00b0C. The warmest month is August, when the average temperature is around 26 \u00b0", "model": "opt", "model_size": "6.7b", "p_type": "0", "p_length": "zero-shot"}, {"Country": "br", "City": "botucatu", "AccentCity": "Botucatu", "Region": 27, "Population": 113865.0, "Latitude": -22.866667, "Longitude": -48.433333000000005, "output": ": Latitude: 42.567 and Longitude: -22.867.\n\nBotucatu is located in the state of Minas Gerais, Brazil.\n\nBotucatu is located in the state of Minas Gerais, Brazil.\n\n-22", "full_output": "The geo-coordinates of Botucatu are: Latitude: 42.567 and Longitude: -22.867.\n\nBotucatu is located in the state of Minas Gerais, Brazil.\n\nBotucatu is located in the state of Minas Gerais, Brazil.\n\n-22", "model": "opt", "model_size": "6.7b", "p_type": "0", "p_length": "zero-shot"},